stations:
- station_id: '70326025503'
  name: KING SALMON AIRPORT
  ctry: US
  state: AK
  lat: 58.683
  lon: -156.656
  elev: 20.0
  regime: boreal_subarctic
  coastal: true
  desert: false
  lat_band: 55+
  probe_pressure_cov: 0.998
  probe_ma1_cov: 0.966
  probe_precip_hours: 1643.0
  accepted: true
  probe_reject: ''
- station_id: '70395025325'
  name: KETCHIKAN INTL AIRPORT
  ctry: US
  state: AK
  lat: 55.359
  lon: -131.722
  elev: 25.7
  regime: boreal_subarctic
  coastal: true
  desert: false
  lat_band: 55+
  probe_pressure_cov: 0.938
  probe_ma1_cov: 0.0
  probe_precip_hours: 2618.0
  accepted: true
  probe_reject: ''
- station_id: '70350025501'
  name: KODIAK AIRPORT
  ctry: US
  state: AK
  lat: 57.751
  lon: -152.488
  elev: 5.0
  regime: boreal_subarctic
  coastal: true
  desert: false
  lat_band: 55+
  probe_pressure_cov: 0.999
  probe_ma1_cov: 0.97
  probe_precip_hours: 2404.0
  accepted: true
  probe_reject: ''
- station_id: '70296026410'
  name: M.K.(MUDHOLE) SMITH ARPT
  ctry: US
  state: AK
  lat: 60.486
  lon: -145.445
  elev: 14.7
  regime: boreal_subarctic
  coastal: true
  desert: false
  lat_band: 55+
  probe_pressure_cov: 0.921
  probe_ma1_cov: 0.0
  probe_precip_hours: 2351.0
  accepted: true
  probe_reject: ''
- station_id: '70341025507'
  name: HOMER AIRPORT
  ctry: US
  state: AK
  lat: 59.642
  lon: -151.491
  elev: 19.1
  regime: boreal_subarctic
  coastal: true
  desert: false
  lat_band: 55+
  probe_pressure_cov: 0.969
  probe_ma1_cov: 0.063
  probe_precip_hours: 1215.0
  accepted: true
  probe_reject: ''
- station_id: '70200026617'
  name: NOME AIRPORT
  ctry: US
  state: AK
  lat: 64.511
  lon: -165.44
  elev: 5.4
  regime: boreal_subarctic
  coastal: true
  desert: false
  lat_band: 55+
  probe_pressure_cov: 0.998
  probe_ma1_cov: 0.972
  probe_precip_hours: 1465.0
  accepted: true
  probe_reject: ''
- station_id: '70386025329'
  name: JAMES A JOHNSON AIRPORT
  ctry: US
  state: AK
  lat: 56.806
  lon: -132.937
  elev: 32.6
  regime: boreal_subarctic
  coastal: true
  desert: false
  lat_band: 55+
  probe_pressure_cov: 0.0
  probe_ma1_cov: 0.0
  probe_precip_hours: 1318.0
  accepted: false
  probe_reject: pressure_coverage
- station_id: '70367025322'
  name: GUSTAVUS
  ctry: US
  state: AK
  lat: 58.411
  lon: -135.709
  elev: 12.2
  regime: boreal_subarctic
  coastal: true
  desert: false
  lat_band: 55+
  probe_pressure_cov: 0.0
  probe_ma1_cov: 0.0
  probe_precip_hours: 802.0
  accepted: false
  probe_reject: pressure_coverage
- station_id: '70361025339'
  name: YAKUTAT AIRPORT
  ctry: US
  state: AK
  lat: 59.512
  lon: -139.671
  elev: 12.6
  regime: boreal_subarctic
  coastal: true
  desert: false
  lat_band: 55+
  probe_pressure_cov: 0.997
  probe_ma1_cov: 0.946
  probe_precip_hours: 3045.0
  accepted: true
  probe_reject: ''
- station_id: '70207026627'
  name: UNALAKLEET AIRPORT
  ctry: US
  state: AK
  lat: 63.883
  lon: -160.8
  elev: 5.5
  regime: boreal_subarctic
  coastal: true
  desert: false
  lat_band: 55+
  probe_pressure_cov: 0.189
  probe_ma1_cov: 0.017
  probe_precip_hours: 151.0
  accepted: false
  probe_reject: pressure_coverage
- station_id: '70026027502'
  name: W POST-WILL ROGERS MEMORIAL AIRPORT
  ctry: US
  state: AK
  lat: 71.287
  lon: -156.739
  elev: 8.1
  regime: boreal_subarctic
  coastal: true
  desert: false
  lat_band: 55+
  probe_pressure_cov: 0.999
  probe_ma1_cov: 0.968
  probe_precip_hours: 1892.0
  accepted: true
  probe_reject: ''
- station_id: '70273026451'
  name: TED STEVENS ANCHORAGE INTL
  ctry: US
  state: AK
  lat: 61.169
  lon: -150.028
  elev: 38.0
  regime: boreal_subarctic
  coastal: true
  desert: false
  lat_band: 55+
  probe_pressure_cov: 0.998
  probe_ma1_cov: 0.968
  probe_precip_hours: 1140.0
  accepted: true
  probe_reject: ''
- station_id: '70371025333'
  name: SITKA ROCKY GUTIERREZ ARPT
  ctry: US
  state: AK
  lat: 57.047
  lon: -135.367
  elev: 6.0
  regime: boreal_subarctic
  coastal: true
  desert: false
  lat_band: 55+
  probe_pressure_cov: 0.944
  probe_ma1_cov: 0.0
  probe_precip_hours: 2291.0
  accepted: true
  probe_reject: ''
- station_id: '70219026615'
  name: BETHEL AIRPORT
  ctry: US
  state: AK
  lat: 60.785
  lon: -161.829
  elev: 32.6
  regime: boreal_subarctic
  coastal: true
  desert: false
  lat_band: 55+
  probe_pressure_cov: 0.72
  probe_ma1_cov: 0.053
  probe_precip_hours: 1622.0
  accepted: false
  probe_reject: pressure_coverage
- station_id: '70063727406'
  name: DEADHORSE AIRPORT
  ctry: US
  state: AK
  lat: 70.191
  lon: -148.48
  elev: 17.7
  regime: boreal_subarctic
  coastal: true
  desert: false
  lat_band: 55+
  probe_pressure_cov: 0.0
  probe_ma1_cov: 0.0
  probe_precip_hours: 1225.0
  accepted: false
  probe_reject: pressure_coverage
- station_id: '70273526409'
  name: MERRILL FIELD AIRPORT
  ctry: US
  state: AK
  lat: 61.216
  lon: -149.857
  elev: 38.4
  regime: boreal_subarctic
  coastal: true
  desert: false
  lat_band: 55+
  probe_pressure_cov: 0.942
  probe_ma1_cov: 0.0
  probe_precip_hours: 1037.0
  accepted: true
  probe_reject: ''
- station_id: '70383025310'
  name: ANGOON SEAPLANE BASE
  ctry: US
  state: AK
  lat: 57.499
  lon: -134.586
  elev: 8.5
  regime: boreal_subarctic
  coastal: true
  desert: false
  lat_band: 55+
  probe_pressure_cov: null
  probe_ma1_cov: null
  probe_precip_hours: null
  accepted: false
  probe_reject: probe_year_1998_absent
- station_id: '70086027401'
  name: BARTER ISLAND AIRPORT
  ctry: US
  state: AK
  lat: 70.134
  lon: -143.577
  elev: 0.6
  regime: boreal_subarctic
  coastal: true
  desert: false
  lat_band: 55+
  probe_pressure_cov: 0.0
  probe_ma1_cov: 0.0
  probe_precip_hours: 0.0
  accepted: false
  probe_reject: pressure_coverage
- station_id: '70362025335'
  name: SKAGWAY AIRPORT
  ctry: US
  state: AK
  lat: 59.454
  lon: -135.328
  elev: 7.4
  regime: boreal_subarctic
  coastal: true
  desert: false
  lat_band: 55+
  probe_pressure_cov: 0.877
  probe_ma1_cov: 0.0
  probe_precip_hours: 1267.0
  accepted: true
  probe_reject: ''
- station_id: '70316025624'
  name: COLD BAY AIRPORT
  ctry: US
  state: AK
  lat: 55.221
  lon: -162.732
  elev: 22.0
  regime: boreal_subarctic
  coastal: true
  desert: false
  lat_band: 55+
  probe_pressure_cov: 0.998
  probe_ma1_cov: 0.973
  probe_precip_hours: 2641.0
  accepted: true
  probe_reject: ''
- station_id: '70381025309'
  name: JUNEAU INTERNATIONAL
  ctry: US
  state: AK
  lat: 58.354
  lon: -134.556
  elev: 5.9
  regime: boreal_subarctic
  coastal: true
  desert: false
  lat_band: 55+
  probe_pressure_cov: 0.835
  probe_ma1_cov: 0.002
  probe_precip_hours: 2424.0
  accepted: false
  probe_reject: pressure_coverage
- station_id: '70133026616'
  name: RALPH WIEN MEMORIAL AIRPORT
  ctry: US
  state: AK
  lat: 66.886
  lon: -162.607
  elev: 3.4
  regime: boreal_subarctic
  coastal: true
  desert: false
  lat_band: 55+
  probe_pressure_cov: 0.999
  probe_ma1_cov: 0.945
  probe_precip_hours: 1299.0
  accepted: true
  probe_reject: ''
- station_id: '70259026523'
  name: KENAI MUNICIPAL AIRPORT
  ctry: US
  state: AK
  lat: 60.579
  lon: -151.242
  elev: 30.2
  regime: boreal_subarctic
  coastal: true
  desert: false
  lat_band: 55+
  probe_pressure_cov: 0.34
  probe_ma1_cov: 0.0
  probe_precip_hours: 1090.0
  accepted: false
  probe_reject: pressure_coverage
- station_id: '70271026425'
  name: GULKANA AIRPORT
  ctry: US
  state: AK
  lat: 62.159
  lon: -145.459
  elev: 481.1
  regime: boreal_subarctic
  coastal: false
  desert: false
  lat_band: 55+
  probe_pressure_cov: 0.705
  probe_ma1_cov: 0.055
  probe_precip_hours: 622.0
  accepted: false
  probe_reject: pressure_coverage
- station_id: '70232026516'
  name: ANIAK AIRPORT
  ctry: US
  state: AK
  lat: 61.582
  lon: -159.543
  elev: 25.9
  regime: boreal_subarctic
  coastal: false
  desert: false
  lat_band: 55+
  probe_pressure_cov: 0.002
  probe_ma1_cov: 0.002
  probe_precip_hours: 586.0
  accepted: false
  probe_reject: pressure_coverage
- station_id: '70267026415'
  name: ALLEN ARMY AIRFIELD
  ctry: US
  state: AK
  lat: 63.993
  lon: -145.721
  elev: 388.1
  regime: boreal_subarctic
  coastal: false
  desert: false
  lat_band: 55+
  probe_pressure_cov: 0.971
  probe_ma1_cov: 0.002
  probe_precip_hours: 919.0
  accepted: true
  probe_reject: ''
- station_id: '70261026411'
  name: FAIRBANKS INTERNATIONAL
  ctry: US
  state: AK
  lat: 64.803
  lon: -147.876
  elev: 131.1
  regime: boreal_subarctic
  coastal: false
  desert: false
  lat_band: 55+
  probe_pressure_cov: 0.999
  probe_ma1_cov: 0.971
  probe_precip_hours: 1230.0
  accepted: true
  probe_reject: ''
- station_id: '70178026529'
  name: RALPH M CALHOUN MEML ARPT
  ctry: US
  state: AK
  lat: 65.173
  lon: -152.107
  elev: 68.7
  regime: boreal_subarctic
  coastal: false
  desert: false
  lat_band: 55+
  probe_pressure_cov: 0.298
  probe_ma1_cov: 0.0
  probe_precip_hours: 710.0
  accepted: false
  probe_reject: pressure_coverage
- station_id: '70343025402'
  name: MIDDLETON ISLAND METEOROLOGY RADAR SITE
  ctry: US
  state: AK
  lat: 59.433
  lon: -146.333
  elev: 30.5
  regime: boreal_subarctic
  coastal: false
  desert: false
  lat_band: 55+
  probe_pressure_cov: null
  probe_ma1_cov: null
  probe_precip_hours: null
  accepted: false
  probe_reject: probe_year_1998_absent
- station_id: '70291026412'
  name: NORTHWAY AIRPORT
  ctry: US
  state: AK
  lat: 62.961
  lon: -141.938
  elev: 523.2
  regime: boreal_subarctic
  coastal: false
  desert: false
  lat_band: 55+
  probe_pressure_cov: 0.919
  probe_ma1_cov: 0.0
  probe_precip_hours: 1029.0
  accepted: true
  probe_reject: ''
- station_id: '70260026435'
  name: NENANA MUNICIPAL AIRPORT
  ctry: US
  state: AK
  lat: 64.547
  lon: -149.087
  elev: 110.1
  regime: boreal_subarctic
  coastal: false
  desert: false
  lat_band: 55+
  probe_pressure_cov: 0.882
  probe_ma1_cov: 0.0
  probe_precip_hours: 686.0
  accepted: true
  probe_reject: ''
- station_id: '70174026533'
  name: BETTLES AIRPORT
  ctry: US
  state: AK
  lat: 66.918
  lon: -151.519
  elev: 196.5
  regime: boreal_subarctic
  coastal: false
  desert: false
  lat_band: 55+
  probe_pressure_cov: 0.989
  probe_ma1_cov: 0.161
  probe_precip_hours: 1427.0
  accepted: true
  probe_reject: ''
- station_id: '70231026510'
  name: MCGRATH AIRPORT
  ctry: US
  state: AK
  lat: 62.957
  lon: -155.61
  elev: 101.0
  regime: boreal_subarctic
  coastal: false
  desert: false
  lat_band: 55+
  probe_pressure_cov: 0.999
  probe_ma1_cov: 0.957
  probe_precip_hours: 1208.0
  accepted: true
  probe_reject: ''
- station_id: '70251026528'
  name: TALKEETNA AIRPORT
  ctry: US
  state: AK
  lat: 62.32
  lon: -150.097
  elev: 106.8
  regime: boreal_subarctic
  coastal: false
  desert: false
  lat_band: 55+
  probe_pressure_cov: 0.991
  probe_ma1_cov: 0.788
  probe_precip_hours: 1330.0
  accepted: true
  probe_reject: ''
- station_id: '70340025506'
  name: ILIAMNA AIRPORT
  ctry: US
  state: AK
  lat: 59.749
  lon: -154.909
  elev: 46.4
  regime: boreal_subarctic
  coastal: false
  desert: false
  lat_band: 55+
  probe_pressure_cov: 0.861
  probe_ma1_cov: 0.002
  probe_precip_hours: 1573.0
  accepted: true
  probe_reject: ''
- station_id: '70194026413'
  name: FORT YUKON AIRPORT
  ctry: US
  state: AK
  lat: 66.567
  lon: -145.267
  elev: 135.6
  regime: boreal_subarctic
  coastal: false
  desert: false
  lat_band: 55+
  probe_pressure_cov: 0.002
  probe_ma1_cov: 0.002
  probe_precip_hours: 148.0
  accepted: false
  probe_reject: pressure_coverage
- station_id: '70246026512'
  name: MINCHUMINA
  ctry: US
  state: AK
  lat: 63.886
  lon: -152.302
  elev: 206.7
  regime: boreal_subarctic
  coastal: false
  desert: false
  lat_band: 55+
  probe_pressure_cov: 0.0
  probe_ma1_cov: 0.0
  probe_precip_hours: 256.0
  accepted: false
  probe_reject: pressure_coverage
- station_id: '72659014929'
  name: ABERDEEN REGIONAL AIRPORT
  ctry: US
  state: SD
  lat: 45.444
  lon: -98.414
  elev: 395.6
  regime: great_plains
  coastal: false
  desert: false
  lat_band: 45-55
  probe_pressure_cov: 1.0
  probe_ma1_cov: 0.981
  probe_precip_hours: 567.0
  accepted: true
  probe_reject: ''
- station_id: '72655014926'
  name: ST CLOUD REGIONAL AIRPORT
  ctry: US
  state: MN
  lat: 45.544
  lon: -94.052
  elev: 310.2
  regime: great_plains
  coastal: false
  desert: false
  lat_band: 45-55
  probe_pressure_cov: 0.997
  probe_ma1_cov: 0.977
  probe_precip_hours: 675.0
  accepted: true
  probe_reject: ''
- station_id: '72747014918'
  name: FALLS INTERNATIONAL AIRPORT
  ctry: US
  state: MN
  lat: 48.559
  lon: -93.396
  elev: 352.6
  regime: great_plains
  coastal: false
  desert: false
  lat_band: 45-55
  probe_pressure_cov: 0.999
  probe_ma1_cov: 0.977
  probe_precip_hours: 1046.0
  accepted: true
  probe_reject: ''
- station_id: '72764024011'
  name: BISMARCK MUNICIPAL AIRPORT
  ctry: US
  state: ND
  lat: 46.782
  lon: -100.758
  elev: 503.2
  regime: great_plains
  coastal: false
  desert: false
  lat_band: 45-55
  probe_pressure_cov: 1.0
  probe_ma1_cov: 0.979
  probe_precip_hours: 606.0
  accepted: true
  probe_reject: ''
- station_id: '72753014914'
  name: HECTOR INTERNATIONAL AIRPORT
  ctry: US
  state: ND
  lat: 46.924
  lon: -96.812
  elev: 272.8
  regime: great_plains
  coastal: false
  desert: false
  lat_band: 45-55
  probe_pressure_cov: 1.0
  probe_ma1_cov: 0.979
  probe_precip_hours: 722.0
  accepted: true
  probe_reject: ''
- station_id: '72767594011'
  name: MINOT AFB AIRPORT
  ctry: US
  state: ND
  lat: 48.417
  lon: -101.35
  elev: 508.1
  regime: great_plains
  coastal: false
  desert: false
  lat_band: 45-55
  probe_pressure_cov: 0.96
  probe_ma1_cov: 0.0
  probe_precip_hours: 897.0
  accepted: true
  probe_reject: ''
- station_id: '72757594925'
  name: GRAND FORKS AFB AIRPORT
  ctry: US
  state: ND
  lat: 47.967
  lon: -97.4
  elev: 278.3
  regime: great_plains
  coastal: false
  desert: false
  lat_band: 45-55
  probe_pressure_cov: 0.962
  probe_ma1_cov: 0.0
  probe_precip_hours: 1011.0
  accepted: true
  probe_reject: ''
- station_id: '72747694961'
  name: BAUDETTE INTERNATIONAL APT
  ctry: US
  state: MN
  lat: 48.726
  lon: -94.612
  elev: 329.8
  regime: great_plains
  coastal: false
  desert: false
  lat_band: 45-55
  probe_pressure_cov: 0.997
  probe_ma1_cov: 0.0
  probe_precip_hours: 781.0
  accepted: true
  probe_reject: ''
- station_id: '72745594931'
  name: CHISHOLM-HIBBING AIRPORT
  ctry: US
  state: MN
  lat: 47.38
  lon: -92.832
  elev: 408.2
  regime: great_plains
  coastal: false
  desert: false
  lat_band: 45-55
  probe_pressure_cov: 0.937
  probe_ma1_cov: 0.0
  probe_precip_hours: 980.0
  accepted: true
  probe_reject: ''
- station_id: '72745014913'
  name: DULUTH INTERNATIONAL AIRPORT
  ctry: US
  state: MN
  lat: 46.844
  lon: -92.187
  elev: 433.4
  regime: great_plains
  coastal: false
  desert: false
  lat_band: 45-55
  probe_pressure_cov: 0.998
  probe_ma1_cov: 0.968
  probe_precip_hours: 973.0
  accepted: true
  probe_reject: ''
- station_id: '72767624013'
  name: MINOT INTERNATIONAL ARPT
  ctry: US
  state: ND
  lat: 48.252
  lon: -101.269
  elev: 505.2
  regime: great_plains
  coastal: false
  desert: false
  lat_band: 45-55
  probe_pressure_cov: 0.001
  probe_ma1_cov: 0.0
  probe_precip_hours: 804.0
  accepted: false
  probe_reject: pressure_coverage
- station_id: '72341993992'
  name: S. AR RGNL AT GDWIN FLD AP
  ctry: US
  state: AR
  lat: 33.221
  lon: -92.814
  elev: 78.0
  regime: great_plains
  coastal: false
  desert: false
  lat_band: 24-35
  probe_pressure_cov: 0.957
  probe_ma1_cov: 0.0
  probe_precip_hours: 718.0
  accepted: true
  probe_reject: ''
- station_id: '72259003927'
  name: DALLAS/FT WORTH INTERNATIONAL AP
  ctry: US
  state: TX
  lat: 32.897
  lon: -97.022
  elev: 165.7
  regime: great_plains
  coastal: false
  desert: false
  lat_band: 24-35
  probe_pressure_cov: 1.0
  probe_ma1_cov: 0.979
  probe_precip_hours: 562.0
  accepted: true
  probe_reject: ''
- station_id: '72259513911'
  name: FORT WORTH NAVAL AIR STATION JRB/CARSWELL FIELD
  ctry: US
  state: TX
  lat: 32.767
  lon: -97.45
  elev: 185.3
  regime: great_plains
  coastal: false
  desert: false
  lat_band: 24-35
  probe_pressure_cov: 0.857
  probe_ma1_cov: 0.009
  probe_precip_hours: 494.0
  accepted: true
  probe_reject: ''
- station_id: '72355013945'
  name: HENRY POST AAF AIRPORT
  ctry: US
  state: OK
  lat: 34.65
  lon: -98.4
  elev: 362.4
  regime: great_plains
  coastal: false
  desert: false
  lat_band: 24-35
  probe_pressure_cov: 0.952
  probe_ma1_cov: 0.0
  probe_precip_hours: 614.0
  accepted: true
  probe_reject: ''
- station_id: '72341793988'
  name: GRIDER FIELD AIRPORT
  ctry: US
  state: AR
  lat: 34.18
  lon: -91.934
  elev: 62.1
  regime: great_plains
  coastal: false
  desert: false
  lat_band: 24-35
  probe_pressure_cov: 0.0
  probe_ma1_cov: 0.0
  probe_precip_hours: 715.0
  accepted: false
  probe_reject: pressure_coverage
- station_id: '72248013957'
  name: SHREVEPORT REGIONAL AIRPORT
  ctry: US
  state: LA
  lat: 32.447
  lon: -93.824
  elev: 69.6
  regime: great_plains
  coastal: false
  desert: false
  lat_band: 24-35
  probe_pressure_cov: 1.0
  probe_ma1_cov: 0.98
  probe_precip_hours: 797.0
  accepted: true
  probe_reject: ''
- station_id: '72248613942'
  name: MONROE REGIONAL AIRPORT
  ctry: US
  state: LA
  lat: 32.516
  lon: -92.03
  elev: 22.1
  regime: great_plains
  coastal: false
  desert: false
  lat_band: 24-35
  probe_pressure_cov: 0.945
  probe_ma1_cov: 0.0
  probe_precip_hours: 735.0
  accepted: true
  probe_reject: ''
- station_id: '72356693950'
  name: MC ALESTER REGIONAL ARPT
  ctry: US
  state: OK
  lat: 34.882
  lon: -95.782
  elev: 229.6
  regime: great_plains
  coastal: false
  desert: false
  lat_band: 24-35
  probe_pressure_cov: 0.945
  probe_ma1_cov: 0.0
  probe_precip_hours: 531.0
  accepted: true
  probe_reject: ''
- station_id: '72260003969'
  name: CLARK FIELD MUNI AIRPORT
  ctry: US
  state: TX
  lat: 32.215
  lon: -98.178
  elev: 402.6
  regime: great_plains
  coastal: false
  desert: false
  lat_band: 24-35
  probe_pressure_cov: null
  probe_ma1_cov: null
  probe_precip_hours: null
  accepted: false
  probe_reject: probe_year_1998_absent
- station_id: '72341813977'
  name: TEXARKANA REGIONAL AIRPORT-WEBB FIELD
  ctry: US
  state: AR
  lat: 33.456
  lon: -93.988
  elev: 115.8
  regime: great_plains
  coastal: false
  desert: false
  lat_band: 24-35
  probe_pressure_cov: 0.956
  probe_ma1_cov: 0.0
  probe_precip_hours: 735.0
  accepted: true
  probe_reject: ''
- station_id: '72248513944'
  name: BARKSDALE AIR FORCE BASE
  ctry: US
  state: LA
  lat: 32.5
  lon: -93.667
  elev: 50.6
  regime: great_plains
  coastal: false
  desert: false
  lat_band: 24-35
  probe_pressure_cov: 0.936
  probe_ma1_cov: 0.0
  probe_precip_hours: 905.0
  accepted: true
  probe_reject: ''
- station_id: '72268023009'
  name: ROSWELL INTERNATIONAL AIR CENTER AP
  ctry: US
  state: NM
  lat: 33.307
  lon: -104.508
  elev: 1104.6
  regime: great_plains
  coastal: false
  desert: true
  lat_band: 24-35
  probe_pressure_cov: 0.997
  probe_ma1_cov: 0.972
  probe_precip_hours: 267.0
  accepted: true
  probe_reject: ''
- station_id: '72258013960'
  name: DALLAS LOVE FIELD AIRPORT
  ctry: US
  state: TX
  lat: 32.838
  lon: -96.836
  elev: 147.6
  regime: great_plains
  coastal: false
  desert: false
  lat_band: 24-35
  probe_pressure_cov: null
  probe_ma1_cov: null
  probe_precip_hours: null
  accepted: false
  probe_reject: probe_year_1998_absent
- station_id: '72352013902'
  name: ALTUS AFB AIRPORT
  ctry: US
  state: OK
  lat: 34.65
  lon: -99.267
  elev: 421.2
  regime: great_plains
  coastal: false
  desert: false
  lat_band: 24-35
  probe_pressure_cov: 0.94
  probe_ma1_cov: 0.0
  probe_precip_hours: 564.0
  accepted: true
  probe_reject: ''
- station_id: '72268793033'
  name: CAVERN CITY AIR TRML ARPT
  ctry: US
  state: NM
  lat: 32.334
  lon: -104.258
  elev: 990.5
  regime: great_plains
  coastal: false
  desert: true
  lat_band: 24-35
  probe_pressure_cov: 0.96
  probe_ma1_cov: 0.0
  probe_precip_hours: 164.0
  accepted: true
  probe_reject: ''
- station_id: '72351013966'
  name: SHEPPARD AFB/WICHITA FALLS MUNI AP
  ctry: US
  state: TX
  lat: 33.979
  lon: -98.493
  elev: 308.6
  regime: great_plains
  coastal: false
  desert: false
  lat_band: 24-35
  probe_pressure_cov: 0.998
  probe_ma1_cov: 0.967
  probe_precip_hours: 599.0
  accepted: true
  probe_reject: ''
- station_id: '72340503930'
  name: LITTLE ROCK AFB AIRPORT
  ctry: US
  state: AR
  lat: 34.917
  lon: -92.15
  elev: 94.8
  regime: great_plains
  coastal: false
  desert: false
  lat_band: 24-35
  probe_pressure_cov: 0.839
  probe_ma1_cov: 0.0
  probe_precip_hours: 723.0
  accepted: false
  probe_reject: pressure_coverage
- station_id: '72247003901'
  name: EAST TEXAS REGIONAL ARPT
  ctry: US
  state: TX
  lat: 32.391
  lon: -94.714
  elev: 107.3
  regime: great_plains
  coastal: false
  desert: false
  lat_band: 24-35
  probe_pressure_cov: 0.577
  probe_ma1_cov: 0.0
  probe_precip_hours: 519.0
  accepted: false
  probe_reject: pressure_coverage
- station_id: '72268893034'
  name: LEA COUNTY REGIONAL AIRPORT
  ctry: US
  state: NM
  lat: 32.693
  lon: -103.213
  elev: 1114.0
  regime: great_plains
  coastal: false
  desert: false
  lat_band: 24-35
  probe_pressure_cov: 0.0
  probe_ma1_cov: 0.0
  probe_precip_hours: 97.0
  accepted: false
  probe_reject: pressure_coverage
- station_id: '72340313963'
  name: ADAMS FIELD AIRPORT
  ctry: US
  state: AR
  lat: 34.727
  lon: -92.236
  elev: 76.4
  regime: great_plains
  coastal: false
  desert: false
  lat_band: 24-35
  probe_pressure_cov: 0.999
  probe_ma1_cov: 0.077
  probe_precip_hours: 746.0
  accepted: true
  probe_reject: ''
- station_id: '72548514940'
  name: MASON CITY MUNICIPAL ARPT
  ctry: US
  state: IA
  lat: 43.154
  lon: -93.326
  elev: 362.1
  regime: great_plains
  coastal: false
  desert: false
  lat_band: 35-45
  probe_pressure_cov: 0.999
  probe_ma1_cov: 0.159
  probe_precip_hours: 733.0
  accepted: true
  probe_reject: ''
- station_id: '72354013919'
  name: TINKER AFB AIRPORT
  ctry: US
  state: OK
  lat: 35.417
  lon: -97.383
  elev: 393.5
  regime: great_plains
  coastal: false
  desert: false
  lat_band: 35-45
  probe_pressure_cov: 0.956
  probe_ma1_cov: 0.0
  probe_precip_hours: 741.0
  accepted: true
  probe_reject: ''
- station_id: '72651014944'
  name: JOE FOSS FIELD AIRPORT
  ctry: US
  state: SD
  lat: 43.578
  lon: -96.754
  elev: 432.4
  regime: great_plains
  coastal: false
  desert: false
  lat_band: 35-45
  probe_pressure_cov: 1.0
  probe_ma1_cov: 0.981
  probe_precip_hours: 902.0
  accepted: true
  probe_reject: ''
- station_id: '72562624091'
  name: IMPERIAL MUNICIPAL AIRPORT
  ctry: US
  state: NE
  lat: 40.511
  lon: -101.624
  elev: 996.5
  regime: great_plains
  coastal: false
  desert: false
  lat_band: 35-45
  probe_pressure_cov: 0.0
  probe_ma1_cov: 0.0
  probe_precip_hours: 241.0
  accepted: false
  probe_reject: pressure_coverage
- station_id: '72465023065'
  name: RENNER FIELD/GOODLAND MINI AIRPORT
  ctry: US
  state: KS
  lat: 39.367
  lon: -101.693
  elev: 1110.5
  regime: great_plains
  coastal: false
  desert: false
  lat_band: 35-45
  probe_pressure_cov: 0.999
  probe_ma1_cov: 0.976
  probe_precip_hours: 547.0
  accepted: true
  probe_reject: ''
- station_id: '72455013947'
  name: MARSHALL ARMY AIRFIELD
  ctry: US
  state: KS
  lat: 39.05
  lon: -96.767
  elev: 324.6
  regime: great_plains
  coastal: false
  desert: false
  lat_band: 35-45
  probe_pressure_cov: 0.221
  probe_ma1_cov: 0.0
  probe_precip_hours: 154.0
  accepted: false
  probe_reject: pressure_coverage
- station_id: '72349513987'
  name: JOPLIN REGIONAL AIRPORT
  ctry: US
  state: MO
  lat: 37.152
  lon: -94.495
  elev: 296.4
  regime: great_plains
  coastal: false
  desert: false
  lat_band: 35-45
  probe_pressure_cov: 0.965
  probe_ma1_cov: 0.0
  probe_precip_hours: 761.0
  accepted: true
  probe_reject: ''
- station_id: '72662524006'
  name: ELLSWORTH AIR FORCE BASE
  ctry: US
  state: SD
  lat: 44.15
  lon: -103.1
  elev: 999.1
  regime: great_plains
  coastal: false
  desert: false
  lat_band: 35-45
  probe_pressure_cov: 0.956
  probe_ma1_cov: 0.0
  probe_precip_hours: 910.0
  accepted: true
  probe_reject: ''
- station_id: '72546014933'
  name: DES MOINES INTERNATIONAL AIRPORT
  ctry: US
  state: IA
  lat: 41.534
  lon: -93.653
  elev: 286.3
  regime: great_plains
  coastal: false
  desert: false
  lat_band: 35-45
  probe_pressure_cov: 1.0
  probe_ma1_cov: 0.978
  probe_precip_hours: 1025.0
  accepted: true
  probe_reject: ''
- station_id: '72446003947'
  name: KANSAS CITY INTERNATIONAL AIRPORT
  ctry: US
  state: MO
  lat: 39.297
  lon: -94.731
  elev: 307.4
  regime: great_plains
  coastal: false
  desert: false
  lat_band: 35-45
  probe_pressure_cov: 0.999
  probe_ma1_cov: 0.976
  probe_precip_hours: 923.0
  accepted: true
  probe_reject: ''
- station_id: '72446713930'
  name: WHITEMAN AFB AIRPORT
  ctry: US
  state: MO
  lat: 38.717
  lon: -93.55
  elev: 265.2
  regime: great_plains
  coastal: false
  desert: false
  lat_band: 35-45
  probe_pressure_cov: 0.958
  probe_ma1_cov: 0.0
  probe_precip_hours: 1013.0
  accepted: true
  probe_reject: ''
- station_id: '72434503966'
  name: SPIRIT OF ST LOUIS AIRPORT
  ctry: US
  state: MO
  lat: 38.658
  lon: -90.656
  elev: 139.5
  regime: great_plains
  coastal: false
  desert: false
  lat_band: 35-45
  probe_pressure_cov: 0.933
  probe_ma1_cov: 0.0
  probe_precip_hours: 875.0
  accepted: true
  probe_reject: ''
- station_id: '72546514950'
  name: OTTUMWA INDUSTRIAL AIRPORT
  ctry: US
  state: IA
  lat: 41.101
  lon: -92.445
  elev: 254.3
  regime: great_plains
  coastal: false
  desert: false
  lat_band: 35-45
  probe_pressure_cov: 0.959
  probe_ma1_cov: 0.0
  probe_precip_hours: 768.0
  accepted: true
  probe_reject: ''
- station_id: '72554014949'
  name: OFFUTT AFB AIRPORT
  ctry: US
  state: NE
  lat: 41.117
  lon: -95.917
  elev: 319.1
  regime: great_plains
  coastal: false
  desert: false
  lat_band: 35-45
  probe_pressure_cov: 0.953
  probe_ma1_cov: 0.0
  probe_precip_hours: 1002.0
  accepted: true
  probe_reject: ''
- station_id: '72456513920'
  name: FORBES FIELD AIRPORT
  ctry: US
  state: KS
  lat: 38.941
  lon: -95.651
  elev: 315.1
  regime: great_plains
  coastal: false
  desert: false
  lat_band: 35-45
  probe_pressure_cov: 0.74
  probe_ma1_cov: 0.0
  probe_precip_hours: 571.0
  accepted: false
  probe_reject: pressure_coverage
- station_id: '72344593993'
  name: DRAKE FIELD AIRPORT
  ctry: US
  state: AR
  lat: 36.01
  lon: -94.168
  elev: 377.1
  regime: great_plains
  coastal: false
  desert: false
  lat_band: 35-45
  probe_pressure_cov: 0.955
  probe_ma1_cov: 0.0
  probe_precip_hours: 794.0
  accepted: true
  probe_reject: ''
- station_id: '72353013967'
  name: WILL ROGERS WORLD AIRPORT
  ctry: US
  state: OK
  lat: 35.388
  lon: -97.6
  elev: 389.9
  regime: great_plains
  coastal: false
  desert: false
  lat_band: 35-45
  probe_pressure_cov: 1.0
  probe_ma1_cov: 0.978
  probe_precip_hours: 635.0
  accepted: true
  probe_reject: ''
- station_id: '72452003957'
  name: MEDICINE LODGE
  ctry: US
  state: KS
  lat: 37.284
  lon: -98.553
  elev: 467.9
  regime: great_plains
  coastal: false
  desert: false
  lat_band: 35-45
  probe_pressure_cov: 0.666
  probe_ma1_cov: 0.0
  probe_precip_hours: 292.0
  accepted: false
  probe_reject: pressure_coverage
- station_id: '72458603919'
  name: SALINA MUNICIPAL AIRPORT
  ctry: US
  state: KS
  lat: 38.78
  lon: -97.644
  elev: 385.0
  regime: great_plains
  coastal: false
  desert: false
  lat_band: 35-45
  probe_pressure_cov: 0.957
  probe_ma1_cov: 0.0
  probe_precip_hours: 509.0
  accepted: true
  probe_reject: ''
- station_id: '72562024023'
  name: NORTH PLATTE RGNL AP LEE BIRD FD AP
  ctry: US
  state: NE
  lat: 41.122
  lon: -100.669
  elev: 841.9
  regime: great_plains
  coastal: false
  desert: false
  lat_band: 35-45
  probe_pressure_cov: 0.999
  probe_ma1_cov: 0.979
  probe_precip_hours: 564.0
  accepted: true
  probe_reject: ''
- station_id: '72557014943'
  name: SIOUX GATEWAY/COL BUD DAY FIELD AP
  ctry: US
  state: IA
  lat: 42.392
  lon: -96.379
  elev: 332.8
  regime: great_plains
  coastal: false
  desert: false
  lat_band: 35-45
  probe_pressure_cov: 0.997
  probe_ma1_cov: 0.975
  probe_precip_hours: 798.0
  accepted: true
  probe_reject: ''
- station_id: '72552014935'
  name: CENTRAL NEBRASKA REGIONAL AIRPORT
  ctry: US
  state: NE
  lat: 40.961
  lon: -98.313
  elev: 561.7
  regime: great_plains
  coastal: false
  desert: false
  lat_band: 35-45
  probe_pressure_cov: 0.997
  probe_ma1_cov: 0.975
  probe_precip_hours: 576.0
  accepted: true
  probe_reject: ''
- station_id: '72434013994'
  name: LAMBERT-ST LOUIS INTERNATIONAL AP
  ctry: US
  state: MO
  lat: 38.752
  lon: -90.373
  elev: 162.0
  regime: great_plains
  coastal: false
  desert: false
  lat_band: 35-45
  probe_pressure_cov: 0.999
  probe_ma1_cov: 0.981
  probe_precip_hours: 1115.0
  accepted: true
  probe_reject: ''
- station_id: '72450613986'
  name: HUTCHINSON MUNICIPAL ARPT
  ctry: US
  state: KS
  lat: 38.068
  lon: -97.861
  elev: 463.2
  regime: great_plains
  coastal: false
  desert: false
  lat_band: 35-45
  probe_pressure_cov: 0.957
  probe_ma1_cov: 0.0
  probe_precip_hours: 563.0
  accepted: true
  probe_reject: ''
- station_id: '72547094908'
  name: DUBUQUE REGIONAL AIRPORT
  ctry: US
  state: IA
  lat: 42.398
  lon: -90.709
  elev: 316.9
  regime: great_plains
  coastal: false
  desert: false
  lat_band: 35-45
  probe_pressure_cov: 0.994
  probe_ma1_cov: 0.976
  probe_precip_hours: 696.0
  accepted: true
  probe_reject: ''
- station_id: '72563624017'
  name: CHADRON MUNICIPAL AIRPORT
  ctry: US
  state: NE
  lat: 42.837
  lon: -103.098
  elev: 1003.0
  regime: great_plains
  coastal: false
  desert: false
  lat_band: 35-45
  probe_pressure_cov: 0.0
  probe_ma1_cov: 0.0
  probe_precip_hours: 423.0
  accepted: false
  probe_reject: pressure_coverage
- station_id: '72551014939'
  name: LINCOLN MUNICIPAL AIRPORT
  ctry: US
  state: NE
  lat: 40.848
  lon: -96.765
  elev: 356.7
  regime: great_plains
  coastal: false
  desert: false
  lat_band: 35-45
  probe_pressure_cov: 0.999
  probe_ma1_cov: 0.922
  probe_precip_hours: 693.0
  accepted: true
  probe_reject: ''
- station_id: '72450003928'
  name: WICHITA EISENHOWER NATIONAL
  ctry: US
  state: KS
  lat: 37.648
  lon: -97.43
  elev: 401.7
  regime: great_plains
  coastal: false
  desert: false
  lat_band: 35-45
  probe_pressure_cov: 1.0
  probe_ma1_cov: 0.98
  probe_precip_hours: 697.0
  accepted: true
  probe_reject: ''
- station_id: '72445703938'
  name: WAYNESVILLE REGIONAL AIRPORT AT FORNEY FIELD
  ctry: US
  state: MO
  lat: 37.75
  lon: -92.15
  elev: 353.3
  regime: great_plains
  coastal: false
  desert: false
  lat_band: 35-45
  probe_pressure_cov: 0.558
  probe_ma1_cov: 0.0
  probe_precip_hours: 584.0
  accepted: false
  probe_reject: pressure_coverage
- station_id: '72643694930'
  name: VOLK FIELD AIRPORT
  ctry: US
  state: WI
  lat: 43.933
  lon: -90.267
  elev: 278.0
  regime: great_plains
  coastal: false
  desert: false
  lat_band: 35-45
  probe_pressure_cov: 0.263
  probe_ma1_cov: 0.0
  probe_precip_hours: 330.0
  accepted: false
  probe_reject: pressure_coverage
- station_id: '72458593997'
  name: RUSSELL MUNICIPAL AIRPORT
  ctry: US
  state: KS
  lat: 38.873
  lon: -98.809
  elev: 568.1
  regime: great_plains
  coastal: false
  desert: false
  lat_band: 35-45
  probe_pressure_cov: 0.954
  probe_ma1_cov: 0.0
  probe_precip_hours: 500.0
  accepted: true
  probe_reject: ''
- station_id: '72451013985'
  name: DODGE CITY REGIONAL AIRPORT
  ctry: US
  state: KS
  lat: 37.771
  lon: -99.969
  elev: 785.6
  regime: great_plains
  coastal: false
  desert: false
  lat_band: 35-45
  probe_pressure_cov: 1.0
  probe_ma1_cov: 0.979
  probe_precip_hours: 589.0
  accepted: true
  probe_reject: ''
- station_id: '72446313988'
  name: C.R. WHEELER DOWNTOWN ARPT
  ctry: US
  state: MO
  lat: 39.128
  lon: -94.589
  elev: 226.2
  regime: great_plains
  coastal: false
  desert: false
  lat_band: 35-45
  probe_pressure_cov: 0.95
  probe_ma1_cov: 0.0
  probe_precip_hours: 771.0
  accepted: true
  probe_reject: ''
- station_id: '72344013964'
  name: FORT SMITH REGIONAL AIRPORT
  ctry: US
  state: AR
  lat: 35.333
  lon: -94.365
  elev: 136.7
  regime: great_plains
  coastal: false
  desert: false
  lat_band: 35-45
  probe_pressure_cov: 0.998
  probe_ma1_cov: 0.975
  probe_precip_hours: 694.0
  accepted: true
  probe_reject: ''
- station_id: '72450713981'
  name: CHANUTE MARTIN JOHNSON APT
  ctry: US
  state: KS
  lat: 37.671
  lon: -95.485
  elev: 298.8
  regime: great_plains
  coastal: false
  desert: false
  lat_band: 35-45
  probe_pressure_cov: 0.927
  probe_ma1_cov: 0.0
  probe_precip_hours: 646.0
  accepted: true
  probe_reject: ''
- station_id: '72658014922'
  name: MINNEAPOLIS-ST PAUL INTERNATIONAL AP
  ctry: US
  state: MN
  lat: 44.885
  lon: -93.231
  elev: 254.5
  regime: great_plains
  coastal: false
  desert: false
  lat_band: 35-45
  probe_pressure_cov: 0.999
  probe_ma1_cov: 0.98
  probe_precip_hours: 863.0
  accepted: true
  probe_reject: ''
- station_id: '72363023047'
  name: AMARILLO RICK HUSBAND INTL AIRPORT
  ctry: US
  state: TX
  lat: 35.22
  lon: -101.717
  elev: 1099.3
  regime: great_plains
  coastal: false
  desert: false
  lat_band: 35-45
  probe_pressure_cov: 1.0
  probe_ma1_cov: 0.976
  probe_precip_hours: 510.0
  accepted: true
  probe_reject: ''
- station_id: '72644014925'
  name: ROCHESTER INTERNATIONAL AIRPORT
  ctry: US
  state: MN
  lat: 43.904
  lon: -92.492
  elev: 397.9
  regime: great_plains
  coastal: false
  desert: false
  lat_band: 35-45
  probe_pressure_cov: 0.998
  probe_ma1_cov: 0.978
  probe_precip_hours: 858.0
  accepted: true
  probe_reject: ''
- station_id: '72643514991'
  name: CHIPPEWA VALLEY RGNL ARPT
  ctry: US
  state: WI
  lat: 44.867
  lon: -91.488
  elev: 269.4
  regime: great_plains
  coastal: false
  desert: false
  lat_band: 35-45
  probe_pressure_cov: 0.997
  probe_ma1_cov: 0.078
  probe_precip_hours: 794.0
  accepted: true
  probe_reject: ''
- station_id: '72556014941'
  name: KARL STEFAN MEMORIAL AIRPORT
  ctry: US
  state: NE
  lat: 41.98
  lon: -97.434
  elev: 476.2
  regime: great_plains
  coastal: false
  desert: false
  lat_band: 35-45
  probe_pressure_cov: 1.0
  probe_ma1_cov: 0.977
  probe_precip_hours: 694.0
  accepted: true
  probe_reject: ''
- station_id: '72445003945'
  name: COLUMBIA REGIONAL AIRPORT
  ctry: US
  state: MO
  lat: 38.817
  lon: -92.215
  elev: 272.2
  regime: great_plains
  coastal: false
  desert: false
  lat_band: 35-45
  probe_pressure_cov: 0.999
  probe_ma1_cov: 0.977
  probe_precip_hours: 936.0
  accepted: true
  probe_reject: ''
- station_id: '72544014923'
  name: QUAD CITY INTERNATIONAL AIRPORT
  ctry: US
  state: IL
  lat: 41.448
  lon: -90.524
  elev: 175.5
  regime: great_plains
  coastal: false
  desert: false
  lat_band: 35-45
  probe_pressure_cov: 1.0
  probe_ma1_cov: 0.921
  probe_precip_hours: 721.0
  accepted: true
  probe_reject: ''
- station_id: '72465593990'
  name: HILL CITY MUNICIPAL ARPT
  ctry: US
  state: KS
  lat: 39.374
  lon: -99.83
  elev: 667.1
  regime: great_plains
  coastal: false
  desert: false
  lat_band: 35-45
  probe_pressure_cov: 0.965
  probe_ma1_cov: 0.0
  probe_precip_hours: 494.0
  accepted: true
  probe_reject: ''
- station_id: '72641614921'
  name: TRI-COUNTY REGIONAL ARPT
  ctry: US
  state: WI
  lat: 43.211
  lon: -90.187
  elev: 218.0
  regime: great_plains
  coastal: false
  desert: false
  lat_band: 35-45
  probe_pressure_cov: 0.0
  probe_ma1_cov: 0.0
  probe_precip_hours: 289.0
  accepted: false
  probe_reject: pressure_coverage
- station_id: '72356013968'
  name: TULSA INTERNATIONAL AIRPORT
  ctry: US
  state: OK
  lat: 36.199
  lon: -95.878
  elev: 194.9
  regime: great_plains
  coastal: false
  desert: false
  lat_band: 35-45
  probe_pressure_cov: 1.0
  probe_ma1_cov: 0.976
  probe_precip_hours: 744.0
  accepted: true
  probe_reject: ''
- station_id: '72548094910'
  name: WATERLOO MUNICIPAL AIRPORT
  ctry: US
  state: IA
  lat: 42.554
  lon: -92.401
  elev: 264.2
  regime: great_plains
  coastal: false
  desert: false
  lat_band: 35-45
  probe_pressure_cov: 0.999
  probe_ma1_cov: 0.922
  probe_precip_hours: 724.0
  accepted: true
  probe_reject: ''
- station_id: '72458013984'
  name: BLOSSER MUNICIPAL AIRPORT
  ctry: US
  state: KS
  lat: 39.551
  lon: -97.651
  elev: 444.3
  regime: great_plains
  coastal: false
  desert: false
  lat_band: 35-45
  probe_pressure_cov: 0.999
  probe_ma1_cov: 0.978
  probe_precip_hours: 533.0
  accepted: true
  probe_reject: ''
- station_id: '72654614946'
  name: WATERTOWN MUNICIPAL ARPT
  ctry: US
  state: SD
  lat: 44.905
  lon: -97.15
  elev: 530.6
  regime: great_plains
  coastal: false
  desert: false
  lat_band: 35-45
  probe_pressure_cov: 0.962
  probe_ma1_cov: 0.0
  probe_precip_hours: 544.0
  accepted: true
  probe_reject: ''
- station_id: '72450503923'
  name: MCCONNELL AFB AIRPORT
  ctry: US
  state: KS
  lat: 37.617
  lon: -97.267
  elev: 417.9
  regime: great_plains
  coastal: false
  desert: false
  lat_band: 35-45
  probe_pressure_cov: 0.915
  probe_ma1_cov: 0.0
  probe_precip_hours: 772.0
  accepted: true
  probe_reject: ''
- station_id: '72253512909'
  name: LACKLAND AIR FORCE BASE (KELLY FIELD ANNEX)
  ctry: US
  state: TX
  lat: 29.383
  lon: -98.583
  elev: 210.3
  regime: gulf_subtropical
  coastal: false
  desert: false
  lat_band: 24-35
  probe_pressure_cov: 0.956
  probe_ma1_cov: 0.0
  probe_precip_hours: 706.0
  accepted: true
  probe_reject: ''
- station_id: '72248713935'
  name: ESLER REGIONAL AIRPORT
  ctry: US
  state: LA
  lat: 31.396
  lon: -92.283
  elev: 26.9
  regime: gulf_subtropical
  coastal: false
  desert: false
  lat_band: 24-35
  probe_pressure_cov: 0.917
  probe_ma1_cov: 0.0
  probe_precip_hours: 608.0
  accepted: true
  probe_reject: ''
- station_id: '72244693987'
  name: ANGELINA COUNTY AIRPORT
  ctry: US
  state: TX
  lat: 31.236
  lon: -94.755
  elev: 87.1
  regime: gulf_subtropical
  coastal: false
  desert: false
  lat_band: 24-35
  probe_pressure_cov: 0.999
  probe_ma1_cov: 0.153
  probe_precip_hours: 693.0
  accepted: true
  probe_reject: ''
- station_id: '72205012815'
  name: ORLANDO INTERNATIONAL AIRPORT
  ctry: US
  state: FL
  lat: 28.418
  lon: -81.324
  elev: 27.1
  regime: gulf_subtropical
  coastal: false
  desert: false
  lat_band: 24-35
  probe_pressure_cov: 1.0
  probe_ma1_cov: 0.976
  probe_precip_hours: 521.0
  accepted: true
  probe_reject: ''
- station_id: '72252612947'
  name: COTULLA-LA SALLE CO ARPT
  ctry: US
  state: TX
  lat: 28.459
  lon: -99.223
  elev: 144.0
  regime: gulf_subtropical
  coastal: false
  desert: false
  lat_band: 24-35
  probe_pressure_cov: 0.633
  probe_ma1_cov: 0.0
  probe_precip_hours: 197.0
  accepted: false
  probe_reject: pressure_coverage
- station_id: '72256013959'
  name: WACO REGIONAL AIRPORT
  ctry: US
  state: TX
  lat: 31.618
  lon: -97.228
  elev: 151.9
  regime: gulf_subtropical
  coastal: false
  desert: false
  lat_band: 24-35
  probe_pressure_cov: 0.999
  probe_ma1_cov: 0.973
  probe_precip_hours: 589.0
  accepted: true
  probe_reject: ''
- station_id: '72253012921'
  name: SAN ANTONIO INTERNATIONAL AIRPORT
  ctry: US
  state: TX
  lat: 29.544
  lon: -98.484
  elev: 243.6
  regime: gulf_subtropical
  coastal: false
  desert: false
  lat_band: 24-35
  probe_pressure_cov: 1.0
  probe_ma1_cov: 0.98
  probe_precip_hours: 581.0
  accepted: true
  probe_reject: ''
- station_id: '74740013973'
  name: KIMBLE COUNTY AIRPORT
  ctry: US
  state: TX
  lat: 30.51
  lon: -99.766
  elev: 521.5
  regime: gulf_subtropical
  coastal: false
  desert: false
  lat_band: 24-35
  probe_pressure_cov: 0.159
  probe_ma1_cov: 0.159
  probe_precip_hours: 0.0
  accepted: false
  probe_reject: pressure_coverage
- station_id: '72216693845'
  name: VALDOSTA REGIONAL AIRPORT
  ctry: US
  state: GA
  lat: 30.776
  lon: -83.274
  elev: 58.7
  regime: gulf_subtropical
  coastal: false
  desert: false
  lat_band: 24-35
  probe_pressure_cov: 0.896
  probe_ma1_cov: 0.0
  probe_precip_hours: 358.0
  accepted: true
  probe_reject: ''
- station_id: '72253312962'
  name: HONDO MUNICIPAL AIRPORT
  ctry: US
  state: TX
  lat: 29.36
  lon: -99.174
  elev: 281.0
  regime: gulf_subtropical
  coastal: false
  desert: false
  lat_band: 24-35
  probe_pressure_cov: 0.932
  probe_ma1_cov: 0.0
  probe_precip_hours: 401.0
  accepted: true
  probe_reject: ''
- station_id: '72205312841'
  name: EXECUTIVE AIRPORT
  ctry: US
  state: FL
  lat: 28.547
  lon: -81.335
  elev: 31.7
  regime: gulf_subtropical
  coastal: false
  desert: false
  lat_band: 24-35
  probe_pressure_cov: 0.538
  probe_ma1_cov: 0.0
  probe_precip_hours: 457.0
  accepted: false
  probe_reject: pressure_coverage
- station_id: '72213013861'
  name: WAYCROSS-WARE CO. AIRPORT
  ctry: US
  state: GA
  lat: 31.25
  lon: -82.4
  elev: 43.3
  regime: gulf_subtropical
  coastal: false
  desert: false
  lat_band: 24-35
  probe_pressure_cov: 0.0
  probe_ma1_cov: 0.0
  probe_precip_hours: 0.0
  accepted: false
  probe_reject: pressure_coverage
- station_id: '72226903850'
  name: CAIRNS ARMY AIRFIELD (FORT RUCKER)
  ctry: US
  state: AL
  lat: 31.267
  lon: -85.717
  elev: 91.7
  regime: gulf_subtropical
  coastal: false
  desert: false
  lat_band: 24-35
  probe_pressure_cov: 0.956
  probe_ma1_cov: 0.0
  probe_precip_hours: 721.0
  accepted: true
  probe_reject: ''
- station_id: '72239003931'
  name: POLK ARMY AIRFIELD
  ctry: US
  state: LA
  lat: 31.05
  lon: -93.183
  elev: 100.6
  regime: gulf_subtropical
  coastal: false
  desert: false
  lat_band: 24-35
  probe_pressure_cov: 0.939
  probe_ma1_cov: 0.0
  probe_precip_hours: 793.0
  accepted: true
  probe_reject: ''
- station_id: '72250612959'
  name: MC ALLEN MILLER INTL ARPT
  ctry: US
  state: TX
  lat: 26.179
  lon: -98.245
  elev: 30.1
  regime: gulf_subtropical
  coastal: false
  desert: false
  lat_band: 24-35
  probe_pressure_cov: 0.918
  probe_ma1_cov: 0.0
  probe_precip_hours: 382.0
  accepted: true
  probe_reject: ''
- station_id: '72226703878'
  name: TROY MUNICIPAL AIRPORT
  ctry: US
  state: AL
  lat: 31.857
  lon: -86.01
  elev: 118.6
  regime: gulf_subtropical
  coastal: false
  desert: false
  lat_band: 24-35
  probe_pressure_cov: 0.343
  probe_ma1_cov: 0.0
  probe_precip_hours: 231.0
  accepted: false
  probe_reject: pressure_coverage
- station_id: '72257603902'
  name: ROBERT GRAY AFF AIRPORT
  ctry: US
  state: TX
  lat: 31.067
  lon: -97.833
  elev: 309.4
  regime: gulf_subtropical
  coastal: false
  desert: false
  lat_band: 24-35
  probe_pressure_cov: 0.969
  probe_ma1_cov: 0.0
  probe_precip_hours: 789.0
  accepted: true
  probe_reject: ''
- station_id: '72253612911'
  name: RANDOLPH AFB AIRPORT
  ctry: US
  state: TX
  lat: 29.533
  lon: -98.262
  elev: 221.9
  regime: gulf_subtropical
  coastal: false
  desert: false
  lat_band: 24-35
  probe_pressure_cov: 0.963
  probe_ma1_cov: 0.0
  probe_precip_hours: 768.0
  accepted: true
  probe_reject: ''
- station_id: '72257003933'
  name: HOOD AAF AIRPORT
  ctry: US
  state: TX
  lat: 31.133
  lon: -97.717
  elev: 281.6
  regime: gulf_subtropical
  coastal: false
  desert: false
  lat_band: 24-35
  probe_pressure_cov: 0.452
  probe_ma1_cov: 0.0
  probe_precip_hours: 293.0
  accepted: false
  probe_reject: pressure_coverage
- station_id: '72216013869'
  name: SW GEORGIA REGIONAL ARPT
  ctry: US
  state: GA
  lat: 31.536
  lon: -84.196
  elev: 58.2
  regime: gulf_subtropical
  coastal: false
  desert: false
  lat_band: 24-35
  probe_pressure_cov: 0.001
  probe_ma1_cov: 0.0
  probe_precip_hours: 397.0
  accepted: false
  probe_reject: pressure_coverage
- station_id: '72235893919'
  name: MCOM/PIKE CO/J E LWS FD AP
  ctry: US
  state: MS
  lat: 31.182
  lon: -90.472
  elev: 123.6
  regime: gulf_subtropical
  coastal: false
  desert: false
  lat_band: 24-35
  probe_pressure_cov: 0.909
  probe_ma1_cov: 0.0
  probe_precip_hours: 527.0
  accepted: true
  probe_reject: ''
- station_id: '72222693841'
  name: WHITING FIELD NAVAL AIR STATION NORTH
  ctry: US
  state: FL
  lat: 30.717
  lon: -87.017
  elev: 60.7
  regime: gulf_subtropical
  coastal: true
  desert: false
  lat_band: 24-35
  probe_pressure_cov: 0.813
  probe_ma1_cov: 0.008
  probe_precip_hours: 598.0
  accepted: false
  probe_reject: pressure_coverage
- station_id: '72222503855'
  name: PENSACOLA NAS
  ctry: US
  state: FL
  lat: 30.35
  lon: -87.317
  elev: 8.5
  regime: gulf_subtropical
  coastal: true
  desert: false
  lat_band: 24-35
  probe_pressure_cov: 0.959
  probe_ma1_cov: 0.009
  probe_precip_hours: 719.0
  accepted: true
  probe_reject: ''
- station_id: '72206013889'
  name: JACKSONVILLE INTERNATIONAL AIRPORT
  ctry: US
  state: FL
  lat: 30.495
  lon: -81.694
  elev: 7.2
  regime: gulf_subtropical
  coastal: true
  desert: false
  lat_band: 24-35
  probe_pressure_cov: 1.0
  probe_ma1_cov: 0.979
  probe_precip_hours: 649.0
  accepted: true
  probe_reject: ''
- station_id: '72251712932'
  name: ALICE INTERNATIONAL ARPT
  ctry: US
  state: TX
  lat: 27.741
  lon: -98.025
  elev: 52.0
  regime: gulf_subtropical
  coastal: true
  desert: false
  lat_band: 24-35
  probe_pressure_cov: 0.934
  probe_ma1_cov: 0.0
  probe_precip_hours: 403.0
  accepted: true
  probe_reject: ''
- station_id: '72231012916'
  name: LOUIS ARMSTRONG NEW ORLEANS INTL AP
  ctry: US
  state: LA
  lat: 29.998
  lon: -90.278
  elev: -1.0
  regime: gulf_subtropical
  coastal: true
  desert: false
  lat_band: 24-35
  probe_pressure_cov: 1.0
  probe_ma1_cov: 0.98
  probe_precip_hours: 711.0
  accepted: true
  probe_reject: ''
- station_id: '72251512926'
  name: CORPUS CHRISTI NAS
  ctry: US
  state: TX
  lat: 27.688
  lon: -97.292
  elev: 4.7
  regime: gulf_subtropical
  coastal: true
  desert: false
  lat_band: 24-35
  probe_pressure_cov: 0.957
  probe_ma1_cov: 0.013
  probe_precip_hours: 464.0
  accepted: true
  probe_reject: ''
- station_id: '72211012842'
  name: TAMPA INTERNATIONAL AIRPORT
  ctry: US
  state: FL
  lat: 27.963
  lon: -82.54
  elev: 1.8
  regime: gulf_subtropical
  coastal: true
  desert: false
  lat_band: 24-35
  probe_pressure_cov: 1.0
  probe_ma1_cov: 0.978
  probe_precip_hours: 540.0
  accepted: true
  probe_reject: ''
- station_id: '72222313899'
  name: PENSACOLA REGIONAL AIRPORT
  ctry: US
  state: FL
  lat: 30.476
  lon: -87.186
  elev: 36.0
  regime: gulf_subtropical
  coastal: true
  desert: false
  lat_band: 24-35
  probe_pressure_cov: 0.997
  probe_ma1_cov: 0.0
  probe_precip_hours: 733.0
  accepted: true
  probe_reject: ''
- station_id: '72203012844'
  name: PALM BEACH INTERNATIONAL AIRPORT
  ctry: US
  state: FL
  lat: 26.685
  lon: -80.099
  elev: 3.5
  regime: gulf_subtropical
  coastal: true
  desert: false
  lat_band: 24-35
  probe_pressure_cov: 1.0
  probe_ma1_cov: 0.978
  probe_precip_hours: 645.0
  accepted: true
  probe_reject: ''
- station_id: '72221513884'
  name: BOB SIKES AIRPORT
  ctry: US
  state: FL
  lat: 30.777
  lon: -86.519
  elev: 47.1
  regime: gulf_subtropical
  coastal: true
  desert: false
  lat_band: 24-35
  probe_pressure_cov: 0.958
  probe_ma1_cov: 0.0
  probe_precip_hours: 789.0
  accepted: true
  probe_reject: ''
- station_id: '72214093805'
  name: TALLAHASSEE REGIONAL AIRPORT
  ctry: US
  state: FL
  lat: 30.394
  lon: -84.351
  elev: 17.1
  regime: gulf_subtropical
  coastal: true
  desert: false
  lat_band: 24-35
  probe_pressure_cov: 0.999
  probe_ma1_cov: 0.977
  probe_precip_hours: 630.0
  accepted: true
  probe_reject: ''
- station_id: '72243012960'
  name: G BUSH INTERCONTINENTAL AP/HOUSTON AP
  ctry: US
  state: TX
  lat: 29.984
  lon: -95.361
  elev: 27.5
  regime: gulf_subtropical
  coastal: true
  desert: false
  lat_band: 24-35
  probe_pressure_cov: 1.0
  probe_ma1_cov: 0.98
  probe_precip_hours: 710.0
  accepted: true
  probe_reject: ''
- station_id: '72202612826'
  name: HOMESTEAD AFB AIRPORT
  ctry: US
  state: FL
  lat: 25.483
  lon: -80.383
  elev: 1.5
  regime: gulf_subtropical
  coastal: true
  desert: false
  lat_band: 24-35
  probe_pressure_cov: 0.958
  probe_ma1_cov: 0.0
  probe_precip_hours: 573.0
  accepted: true
  probe_reject: ''
- station_id: '72251012924'
  name: CORPUS CHRISTI INTERNATIONAL AIRPORT
  ctry: US
  state: TX
  lat: 27.773
  lon: -97.513
  elev: 12.5
  regime: gulf_subtropical
  coastal: true
  desert: false
  lat_band: 24-35
  probe_pressure_cov: 1.0
  probe_ma1_cov: 0.98
  probe_precip_hours: 526.0
  accepted: true
  probe_reject: ''
- station_id: '72241012917'
  name: SOUTHEAST TEXAS REGIONAL AIRPORT
  ctry: US
  state: TX
  lat: 29.952
  lon: -94.026
  elev: 3.8
  regime: gulf_subtropical
  coastal: true
  desert: false
  lat_band: 24-35
  probe_pressure_cov: 0.999
  probe_ma1_cov: 0.922
  probe_precip_hours: 622.0
  accepted: true
  probe_reject: ''
- station_id: '72242012923'
  name: SCHOLES INTL AT GLSTON APT
  ctry: US
  state: TX
  lat: 29.27
  lon: -94.864
  elev: 1.5
  regime: gulf_subtropical
  coastal: true
  desert: false
  lat_band: 24-35
  probe_pressure_cov: 0.944
  probe_ma1_cov: 0.0
  probe_precip_hours: 521.0
  accepted: true
  probe_reject: ''
- station_id: '72210612835'
  name: PAGE FIELD AIRPORT
  ctry: US
  state: FL
  lat: 26.585
  lon: -81.861
  elev: 3.8
  regime: gulf_subtropical
  coastal: true
  desert: false
  lat_band: 24-35
  probe_pressure_cov: 0.545
  probe_ma1_cov: 0.0
  probe_precip_hours: 523.0
  accepted: false
  probe_reject: pressure_coverage
- station_id: '74768613820'
  name: KEESLER AIR FORCE BASE
  ctry: US
  state: MS
  lat: 30.417
  lon: -88.917
  elev: 10.1
  regime: gulf_subtropical
  coastal: true
  desert: false
  lat_band: 24-35
  probe_pressure_cov: 0.91
  probe_ma1_cov: 0.0
  probe_precip_hours: 706.0
  accepted: true
  probe_reject: ''
- station_id: '72201512850'
  name: KEY WEST NAS
  ctry: US
  state: FL
  lat: 24.583
  lon: -81.683
  elev: 1.8
  regime: gulf_subtropical
  coastal: true
  desert: false
  lat_band: 24-35
  probe_pressure_cov: 0.947
  probe_ma1_cov: 0.012
  probe_precip_hours: 296.0
  accepted: true
  probe_reject: ''
- station_id: '72210492806'
  name: ALBERT WHITTED AIRPORT
  ctry: US
  state: FL
  lat: 27.768
  lon: -82.626
  elev: 1.3
  regime: gulf_subtropical
  coastal: true
  desert: false
  lat_band: 24-35
  probe_pressure_cov: 0.525
  probe_ma1_cov: 0.0
  probe_precip_hours: 358.0
  accepted: false
  probe_reject: pressure_coverage
- station_id: '72240413941'
  name: CHENNAULT INTERNATIONAL AP
  ctry: US
  state: LA
  lat: 30.21
  lon: -93.143
  elev: 5.2
  regime: gulf_subtropical
  coastal: true
  desert: false
  lat_band: 24-35
  probe_pressure_cov: 0.0
  probe_ma1_cov: 0.0
  probe_precip_hours: 263.0
  accepted: false
  probe_reject: pressure_coverage
- station_id: '74788012810'
  name: MAC DILL AFB AIRPORT
  ctry: US
  state: FL
  lat: 27.85
  lon: -82.517
  elev: 4.3
  regime: gulf_subtropical
  coastal: true
  desert: false
  lat_band: 24-35
  probe_pressure_cov: 0.945
  probe_ma1_cov: 0.0
  probe_precip_hours: 588.0
  accepted: true
  probe_reject: ''
- station_id: '72206593837'
  name: JACKSONVILLE NAS
  ctry: US
  state: FL
  lat: 30.233
  lon: -81.667
  elev: 6.1
  regime: gulf_subtropical
  coastal: true
  desert: false
  lat_band: 24-35
  probe_pressure_cov: 0.967
  probe_ma1_cov: 0.004
  probe_precip_hours: 552.0
  accepted: true
  probe_reject: ''
- station_id: '72202012839'
  name: MIAMI INTERNATIONAL AIRPORT
  ctry: US
  state: FL
  lat: 25.788
  lon: -80.317
  elev: 1.4
  regime: gulf_subtropical
  coastal: true
  desert: false
  lat_band: 24-35
  probe_pressure_cov: 1.0
  probe_ma1_cov: 0.98
  probe_precip_hours: 630.0
  accepted: true
  probe_reject: ''
- station_id: '72255512935'
  name: PALACIOS MUNICIPAL AIRPORT
  ctry: US
  state: TX
  lat: 28.725
  lon: -96.254
  elev: 3.2
  regime: gulf_subtropical
  coastal: true
  desert: false
  lat_band: 24-35
  probe_pressure_cov: 0.933
  probe_ma1_cov: 0.0
  probe_precip_hours: 542.0
  accepted: true
  probe_reject: ''
- station_id: '72240513976'
  name: LAFAYETTE REGIONAL AIRPORT
  ctry: US
  state: LA
  lat: 30.199
  lon: -91.99
  elev: 10.8
  regime: gulf_subtropical
  coastal: true
  desert: false
  lat_band: 24-35
  probe_pressure_cov: 0.951
  probe_ma1_cov: 0.0
  probe_precip_hours: 562.0
  accepted: true
  probe_reject: ''
- station_id: '72204012838'
  name: MELBOURNE INTL AP
  ctry: US
  state: FL
  lat: 28.1
  lon: -80.636
  elev: 6.7
  regime: gulf_subtropical
  coastal: true
  desert: false
  lat_band: 24-35
  probe_pressure_cov: 0.001
  probe_ma1_cov: 0.0
  probe_precip_hours: 437.0
  accepted: false
  probe_reject: pressure_coverage
- station_id: '74794012868'
  name: COCOA BEACH CAPE KENNEDY AFS
  ctry: US
  state: FL
  lat: 28.483
  lon: -80.567
  elev: 3.1
  regime: gulf_subtropical
  coastal: true
  desert: false
  lat_band: 24-35
  probe_pressure_cov: null
  probe_ma1_cov: null
  probe_precip_hours: null
  accepted: false
  probe_reject: probe_year_1998_absent
- station_id: '72212012833'
  name: CROSS CITY AIRPORT
  ctry: US
  state: FL
  lat: 29.633
  lon: -83.105
  elev: 11.6
  regime: gulf_subtropical
  coastal: true
  desert: false
  lat_band: 24-35
  probe_pressure_cov: 0.651
  probe_ma1_cov: 0.002
  probe_precip_hours: 1.0
  accepted: false
  probe_reject: pressure_coverage
- station_id: '72231553917'
  name: LAKEFRONT AIRPORT
  ctry: US
  state: LA
  lat: 30.049
  lon: -90.029
  elev: 0.9
  regime: gulf_subtropical
  coastal: true
  desert: false
  lat_band: 24-35
  probe_pressure_cov: 0.962
  probe_ma1_cov: 0.0
  probe_precip_hours: 571.0
  accepted: true
  probe_reject: ''
- station_id: '74795012867'
  name: PATRICK AFB AIRPORT
  ctry: US
  state: FL
  lat: 28.233
  lon: -80.6
  elev: 2.4
  regime: gulf_subtropical
  coastal: true
  desert: false
  lat_band: 24-35
  probe_pressure_cov: 0.702
  probe_ma1_cov: 0.0
  probe_precip_hours: 414.0
  accepted: false
  probe_reject: pressure_coverage
- station_id: '72231612958'
  name: NEW ORLEANS NAS
  ctry: US
  state: LA
  lat: 29.817
  lon: -90.017
  elev: 0.6
  regime: gulf_subtropical
  coastal: true
  desert: false
  lat_band: 24-35
  probe_pressure_cov: 0.93
  probe_ma1_cov: 0.005
  probe_precip_hours: 593.0
  accepted: true
  probe_reject: ''
- station_id: '72223513838'
  name: MOBILE DOWNTOWN AIRPORT
  ctry: US
  state: AL
  lat: 30.615
  lon: -88.063
  elev: 4.9
  regime: gulf_subtropical
  coastal: true
  desert: false
  lat_band: 24-35
  probe_pressure_cov: 0.903
  probe_ma1_cov: 0.0
  probe_precip_hours: 714.0
  accepted: true
  probe_reject: ''
- station_id: '72250012919'
  name: BROWNSVILLE/S PADRE ISLAND INTL AP
  ctry: US
  state: TX
  lat: 25.915
  lon: -97.423
  elev: 5.7
  regime: gulf_subtropical
  coastal: true
  desert: false
  lat_band: 24-35
  probe_pressure_cov: 1.0
  probe_ma1_cov: 0.979
  probe_precip_hours: 420.0
  accepted: true
  probe_reject: ''
- station_id: '72221013858'
  name: EGLIN AFB AIRPORT
  ctry: US
  state: FL
  lat: 30.483
  lon: -86.517
  elev: 26.5
  regime: gulf_subtropical
  coastal: true
  desert: false
  lat_band: 24-35
  probe_pressure_cov: null
  probe_ma1_cov: null
  probe_precip_hours: null
  accepted: false
  probe_reject: probe_year_1998_absent
- station_id: '72243612906'
  name: ELLINGTON FIELD AIRPORT
  ctry: US
  state: TX
  lat: 29.617
  lon: -95.167
  elev: 9.8
  regime: gulf_subtropical
  coastal: true
  desert: false
  lat_band: 24-35
  probe_pressure_cov: 0.0
  probe_ma1_cov: 0.0
  probe_precip_hours: 374.0
  accepted: false
  probe_reject: pressure_coverage
- station_id: '72206603853'
  name: MAYPORT NAF
  ctry: US
  state: FL
  lat: 30.4
  lon: -81.417
  elev: 4.9
  regime: gulf_subtropical
  coastal: true
  desert: false
  lat_band: 24-35
  probe_pressure_cov: 0.915
  probe_ma1_cov: 0.001
  probe_precip_hours: 515.0
  accepted: true
  probe_reject: ''
- station_id: '74777003852'
  name: HURLBURT FIELD AIRPORT
  ctry: US
  state: FL
  lat: 30.417
  lon: -86.683
  elev: 11.6
  regime: gulf_subtropical
  coastal: true
  desert: false
  lat_band: 24-35
  probe_pressure_cov: 0.914
  probe_ma1_cov: 0.0
  probe_precip_hours: 770.0
  accepted: true
  probe_reject: ''
- station_id: '72201012836'
  name: KEY WEST INTERNATIONAL AIRPORT
  ctry: US
  state: FL
  lat: 24.557
  lon: -81.755
  elev: 0.3
  regime: gulf_subtropical
  coastal: true
  desert: false
  lat_band: 24-35
  probe_pressure_cov: 0.992
  probe_ma1_cov: 0.97
  probe_precip_hours: 450.0
  accepted: true
  probe_reject: ''
- station_id: '72205712854'
  name: ORLANDO SANFORD AIRPORT
  ctry: US
  state: FL
  lat: 28.78
  lon: -81.244
  elev: 14.9
  regime: gulf_subtropical
  coastal: true
  desert: false
  lat_band: 24-35
  probe_pressure_cov: 0.0
  probe_ma1_cov: 0.0
  probe_precip_hours: 393.0
  accepted: false
  probe_reject: pressure_coverage
- station_id: '72213713878'
  name: MALCOLM MC KINNON AIRPORT
  ctry: US
  state: GA
  lat: 31.153
  lon: -81.391
  elev: 4.3
  regime: gulf_subtropical
  coastal: true
  desert: false
  lat_band: 24-35
  probe_pressure_cov: 0.646
  probe_ma1_cov: 0.0
  probe_precip_hours: 302.0
  accepted: false
  probe_reject: pressure_coverage
- station_id: '72251612928'
  name: KINGSVILLE NAS
  ctry: US
  state: TX
  lat: 27.509
  lon: -97.804
  elev: 13.4
  regime: gulf_subtropical
  coastal: true
  desert: false
  lat_band: 24-35
  probe_pressure_cov: 0.796
  probe_ma1_cov: 0.014
  probe_precip_hours: 307.0
  accepted: false
  probe_reject: pressure_coverage
- station_id: '72250512904'
  name: VALLEY INTERNATIONAL ARPT
  ctry: US
  state: TX
  lat: 26.23
  lon: -97.656
  elev: 9.5
  regime: gulf_subtropical
  coastal: true
  desert: false
  lat_band: 24-35
  probe_pressure_cov: 0.892
  probe_ma1_cov: 0.0
  probe_precip_hours: 387.0
  accepted: true
  probe_reject: ''
- station_id: '72240003937'
  name: LAKE CHARLES REGIONAL AIRPORT
  ctry: US
  state: LA
  lat: 30.126
  lon: -93.228
  elev: 2.0
  regime: gulf_subtropical
  coastal: true
  desert: false
  lat_band: 24-35
  probe_pressure_cov: 1.0
  probe_ma1_cov: 0.983
  probe_precip_hours: 637.0
  accepted: true
  probe_reject: ''
- station_id: '72220012832'
  name: APALACHICOLA MUNI AIRPORT
  ctry: US
  state: FL
  lat: 29.727
  lon: -85.025
  elev: 5.5
  regime: gulf_subtropical
  coastal: true
  desert: false
  lat_band: 24-35
  probe_pressure_cov: 0.337
  probe_ma1_cov: 0.002
  probe_precip_hours: 245.0
  accepted: false
  probe_reject: pressure_coverage
- station_id: '72255012912'
  name: VICTORIA REGIONAL AIRPORT
  ctry: US
  state: TX
  lat: 28.862
  lon: -96.93
  elev: 33.7
  regime: gulf_subtropical
  coastal: true
  desert: false
  lat_band: 24-35
  probe_pressure_cov: 0.999
  probe_ma1_cov: 0.975
  probe_precip_hours: 657.0
  accepted: true
  probe_reject: ''
- station_id: '72223013894'
  name: MOBILE REGIONAL AIRPORT
  ctry: US
  state: AL
  lat: 30.688
  lon: -88.246
  elev: 65.5
  regime: gulf_subtropical
  coastal: true
  desert: false
  lat_band: 24-35
  probe_pressure_cov: 1.0
  probe_ma1_cov: 0.979
  probe_precip_hours: 801.0
  accepted: true
  probe_reject: ''
- station_id: '74775013846'
  name: TYNDALL AFB AIRPORT
  ctry: US
  state: FL
  lat: 30.067
  lon: -85.583
  elev: 5.2
  regime: gulf_subtropical
  coastal: true
  desert: false
  lat_band: 24-35
  probe_pressure_cov: 0.935
  probe_ma1_cov: 0.0
  probe_precip_hours: 597.0
  accepted: true
  probe_reject: ''
- station_id: '72270023044'
  name: EL PASO INTERNATIONAL AIRPORT
  ctry: US
  state: TX
  lat: 31.812
  lon: -106.377
  elev: 1202.1
  regime: mountain_west
  coastal: false
  desert: true
  lat_band: 24-35
  probe_pressure_cov: 0.999
  probe_ma1_cov: 0.974
  probe_precip_hours: 256.0
  accepted: true
  probe_reject: ''
- station_id: '72262023055'
  name: GUADALUPE PASS AMOS
  ctry: US
  state: TX
  lat: 31.833
  lon: -104.809
  elev: 1655.0
  regime: mountain_west
  coastal: false
  desert: true
  lat_band: 24-35
  probe_pressure_cov: 0.0
  probe_ma1_cov: 0.0
  probe_precip_hours: 0.0
  accepted: false
  probe_reject: pressure_coverage
- station_id: '72372323184'
  name: ERNEST A. LOVE FIELD ARPT
  ctry: US
  state: AZ
  lat: 34.649
  lon: -112.422
  elev: 1527.8
  regime: mountain_west
  coastal: false
  desert: true
  lat_band: 24-35
  probe_pressure_cov: 0.374
  probe_ma1_cov: 0.048
  probe_precip_hours: 391.0
  accepted: false
  probe_reject: pressure_coverage
- station_id: '72271093045'
  name: TRH OR CONSEQCES MUNI ARPT
  ctry: US
  state: NM
  lat: 33.237
  lon: -107.268
  elev: 1470.2
  regime: mountain_west
  coastal: false
  desert: true
  lat_band: 24-35
  probe_pressure_cov: 0.977
  probe_ma1_cov: 0.977
  probe_precip_hours: 183.0
  accepted: true
  probe_reject: ''
- station_id: '72264093035'
  name: MARFA MUNICIPAL AIRPORT
  ctry: US
  state: TX
  lat: 30.371
  lon: -104.017
  elev: 1478.0
  regime: mountain_west
  coastal: false
  desert: false
  lat_band: 24-35
  probe_pressure_cov: 0.0
  probe_ma1_cov: 0.0
  probe_precip_hours: 54.0
  accepted: false
  probe_reject: pressure_coverage
- station_id: '72268623008'
  name: CANNON AFB AIRPORT
  ctry: US
  state: NM
  lat: 34.383
  lon: -103.317
  elev: 1309.1
  regime: mountain_west
  coastal: false
  desert: false
  lat_band: 24-35
  probe_pressure_cov: 0.878
  probe_ma1_cov: 0.0
  probe_precip_hours: 411.0
  accepted: true
  probe_reject: ''
- station_id: '72273003124'
  name: SIERRA VISTA MUNICIPAL-LIBBY AAF AIRPORT
  ctry: US
  state: AZ
  lat: 31.588
  lon: -110.344
  elev: 1438.4
  regime: mountain_west
  coastal: false
  desert: true
  lat_band: 24-35
  probe_pressure_cov: 0.455
  probe_ma1_cov: 0.0
  probe_precip_hours: 189.0
  accepted: false
  probe_reject: pressure_coverage
- station_id: '72383023187'
  name: SANDBERG
  ctry: US
  state: CA
  lat: 34.744
  lon: -118.725
  elev: 1374.7
  regime: mountain_west
  coastal: false
  desert: false
  lat_band: 24-35
  probe_pressure_cov: 0.943
  probe_ma1_cov: 0.892
  probe_precip_hours: 280.0
  accepted: true
  probe_reject: ''
- station_id: '72677624036'
  name: LEWISTOWN MUNICIPAL ARPT
  ctry: US
  state: MT
  lat: 47.054
  lon: -109.457
  elev: 1257.4
  regime: mountain_west
  coastal: false
  desert: false
  lat_band: 45-55
  probe_pressure_cov: 0.967
  probe_ma1_cov: 0.0
  probe_precip_hours: 323.0
  accepted: true
  probe_reject: ''
- station_id: '72781524237'
  name: STAMPASS PASS FLTWO
  ctry: US
  state: WA
  lat: 47.277
  lon: -121.337
  elev: 1206.7
  regime: mountain_west
  coastal: false
  desert: false
  lat_band: 45-55
  probe_pressure_cov: 0.167
  probe_ma1_cov: 0.0
  probe_precip_hours: 384.0
  accepted: false
  probe_reject: pressure_coverage
- station_id: '72679824150'
  name: MISSION FIELD AIRPORT
  ctry: US
  state: MT
  lat: 45.698
  lon: -110.442
  elev: 1415.9
  regime: mountain_west
  coastal: false
  desert: false
  lat_band: 45-55
  probe_pressure_cov: 0.664
  probe_ma1_cov: 0.0
  probe_precip_hours: 654.0
  accepted: false
  probe_reject: pressure_coverage
- station_id: '72679724132'
  name: GALLATIN FIELD AIRPORT
  ctry: US
  state: MT
  lat: 45.788
  lon: -111.162
  elev: 1350.7
  regime: mountain_west
  coastal: false
  desert: false
  lat_band: 45-55
  probe_pressure_cov: 0.953
  probe_ma1_cov: 0.0
  probe_precip_hours: 720.0
  accepted: true
  probe_reject: ''
- station_id: '72289093136'
  name: MOUNT WILSON
  ctry: US
  state: CA
  lat: 34.233
  lon: -118.067
  elev: 1739.2
  regime: mountain_west
  coastal: true
  desert: false
  lat_band: 24-35
  probe_pressure_cov: 0.0
  probe_ma1_cov: 0.0
  probe_precip_hours: 0.0
  accepted: false
  probe_reject: pressure_coverage
- station_id: '72566024028'
  name: WESTERN NE REGIONAL/HEILIG FIELD AP
  ctry: US
  state: NE
  lat: 41.875
  lon: -103.601
  elev: 1206.0
  regime: mountain_west
  coastal: false
  desert: false
  lat_band: 35-45
  probe_pressure_cov: 1.0
  probe_ma1_cov: 0.921
  probe_precip_hours: 643.0
  accepted: true
  probe_reject: ''
- station_id: '72476023066'
  name: GRAND JUNCTION REGIONAL AIRPORT
  ctry: US
  state: CO
  lat: 39.134
  lon: -108.541
  elev: 1470.4
  regime: mountain_west
  coastal: false
  desert: true
  lat_band: 35-45
  probe_pressure_cov: 0.995
  probe_ma1_cov: 0.972
  probe_precip_hours: 502.0
  accepted: true
  probe_reject: ''
- station_id: '72362593057'
  name: GRANTS-MILAN MUNI AIRPORT
  ctry: US
  state: NM
  lat: 35.165
  lon: -107.902
  elev: 1987.3
  regime: mountain_west
  coastal: false
  desert: true
  lat_band: 35-45
  probe_pressure_cov: 0.944
  probe_ma1_cov: 0.0
  probe_precip_hours: 0.0
  accepted: false
  probe_reject: precip_evidence
- station_id: '72572024127'
  name: SALT LAKE CITY INTERNATIONAL AIRPORT
  ctry: US
  state: UT
  lat: 40.771
  lon: -111.965
  elev: 1288.4
  regime: mountain_west
  coastal: false
  desert: false
  lat_band: 35-45
  probe_pressure_cov: 1.0
  probe_ma1_cov: 0.978
  probe_precip_hours: 637.0
  accepted: true
  probe_reject: ''
- station_id: '72464093058'
  name: PUEBLO MEMORIAL AIRPORT
  ctry: US
  state: CO
  lat: 38.289
  lon: -104.506
  elev: 1424.5
  regime: mountain_west
  coastal: false
  desert: true
  lat_band: 35-45
  probe_pressure_cov: 0.999
  probe_ma1_cov: 0.977
  probe_precip_hours: 509.0
  accepted: true
  probe_reject: ''
- station_id: '72569024089'
  name: NATRONA COUNTY INTERNATIONAL AP
  ctry: US
  state: WY
  lat: 42.898
  lon: -106.474
  elev: 1621.1
  regime: mountain_west
  coastal: false
  desert: false
  lat_band: 35-45
  probe_pressure_cov: 0.999
  probe_ma1_cov: 0.974
  probe_precip_hours: 699.0
  accepted: true
  probe_reject: ''
- station_id: '72463523067'
  name: LA JUNTA MUNICIPAL AIRPORT
  ctry: US
  state: CO
  lat: 38.049
  lon: -103.513
  elev: 1278.7
  regime: mountain_west
  coastal: false
  desert: false
  lat_band: 35-45
  probe_pressure_cov: 0.944
  probe_ma1_cov: 0.0
  probe_precip_hours: 427.0
  accepted: true
  probe_reject: ''
- station_id: '72362723081'
  name: GALLUP MUNICIPAL AIRPORT
  ctry: US
  state: NM
  lat: 35.509
  lon: -108.793
  elev: 1970.3
  regime: mountain_west
  coastal: false
  desert: true
  lat_band: 35-45
  probe_pressure_cov: 1.0
  probe_ma1_cov: 0.159
  probe_precip_hours: 596.0
  accepted: true
  probe_reject: ''
- station_id: '72467523063'
  name: EAGLE CO REGIONAL AIRPORT
  ctry: US
  state: CO
  lat: 39.65
  lon: -106.917
  elev: 1980.3
  regime: mountain_west
  coastal: false
  desert: true
  lat_band: 35-45
  probe_pressure_cov: 0.0
  probe_ma1_cov: 0.0
  probe_precip_hours: 31.0
  accepted: false
  probe_reject: pressure_coverage
- station_id: '72360023051'
  name: CLAYTON MUNICIPAL AIRPARK AIRPORT
  ctry: US
  state: NM
  lat: 36.448
  lon: -103.154
  elev: 1514.6
  regime: mountain_west
  coastal: false
  desert: false
  lat_band: 35-45
  probe_pressure_cov: 0.998
  probe_ma1_cov: 0.961
  probe_precip_hours: 439.0
  accepted: true
  probe_reject: ''
- station_id: '72466593010'
  name: LIMON MUNICIPAL AIRPORT
  ctry: US
  state: CO
  lat: 39.273
  lon: -103.667
  elev: 1633.1
  regime: mountain_west
  coastal: false
  desert: false
  lat_band: 35-45
  probe_pressure_cov: 0.921
  probe_ma1_cov: 0.0
  probe_precip_hours: 499.0
  accepted: true
  probe_reject: ''
- station_id: '72485523153'
  name: TONOPAH AIRPORT
  ctry: US
  state: NV
  lat: 38.05
  lon: -117.091
  elev: 1645.7
  regime: mountain_west
  coastal: false
  desert: false
  lat_band: 35-45
  probe_pressure_cov: 0.997
  probe_ma1_cov: 0.16
  probe_precip_hours: 235.0
  accepted: true
  probe_reject: ''
- station_id: '72488023185'
  name: RENO/TAHOE INTERNATIONAL AIRPORT
  ctry: US
  state: NV
  lat: 39.508
  lon: -119.768
  elev: 1342.5
  regime: mountain_west
  coastal: false
  desert: false
  lat_band: 35-45
  probe_pressure_cov: 0.999
  probe_ma1_cov: 0.976
  probe_precip_hours: 416.0
  accepted: true
  probe_reject: ''
- station_id: '72561024030'
  name: SIDNEY MUNICIPAL AIRPORT
  ctry: US
  state: NE
  lat: 41.099
  lon: -102.986
  elev: 1306.8
  regime: mountain_west
  coastal: false
  desert: false
  lat_band: 35-45
  probe_pressure_cov: 0.907
  probe_ma1_cov: 0.0
  probe_precip_hours: 537.0
  accepted: true
  probe_reject: ''
- station_id: '72367723054'
  name: LAS VEGAS MUNICIPAL ARPT
  ctry: US
  state: NM
  lat: 35.656
  lon: -105.139
  elev: 2094.0
  regime: mountain_west
  coastal: false
  desert: true
  lat_band: 35-45
  probe_pressure_cov: 0.0
  probe_ma1_cov: 0.0
  probe_precip_hours: 176.0
  accepted: false
  probe_reject: pressure_coverage
- station_id: '72586724133'
  name: BURLEY MUNICIPAL AIRPORT
  ctry: US
  state: ID
  lat: 42.545
  lon: -113.769
  elev: 1262.9
  regime: mountain_west
  coastal: false
  desert: false
  lat_band: 35-45
  probe_pressure_cov: 0.54
  probe_ma1_cov: 0.0
  probe_precip_hours: 414.0
  accepted: false
  probe_reject: pressure_coverage
- station_id: '72374023194'
  name: WINSLOW-LINDBERGH REGIONAL AIRPORT
  ctry: US
  state: AZ
  lat: 35.028
  lon: -110.722
  elev: 1489.2
  regime: mountain_west
  coastal: false
  desert: true
  lat_band: 35-45
  probe_pressure_cov: 0.998
  probe_ma1_cov: 0.966
  probe_precip_hours: 242.0
  accepted: true
  probe_reject: ''
- station_id: '72583024128'
  name: WINNEMUCCA MUNICIPAL AIRPORT
  ctry: US
  state: NV
  lat: 40.902
  lon: -117.808
  elev: 1310.6
  regime: mountain_west
  coastal: false
  desert: false
  lat_band: 35-45
  probe_pressure_cov: 0.955
  probe_ma1_cov: 0.951
  probe_precip_hours: 461.0
  accepted: true
  probe_reject: ''
- station_id: '72576024021'
  name: HUNT FIELD AIRPORT
  ctry: US
  state: WY
  lat: 42.815
  lon: -108.726
  elev: 1698.5
  regime: mountain_west
  coastal: false
  desert: false
  lat_band: 35-45
  probe_pressure_cov: 0.999
  probe_ma1_cov: 0.972
  probe_precip_hours: 657.0
  accepted: true
  probe_reject: ''
- station_id: '72581024193'
  name: WENDOVER AIRPORT
  ctry: US
  state: UT
  lat: 40.721
  lon: -114.036
  elev: 1291.4
  regime: mountain_west
  coastal: false
  desert: false
  lat_band: 35-45
  probe_pressure_cov: 0.0
  probe_ma1_cov: 0.0
  probe_precip_hours: 149.0
  accepted: false
  probe_reject: pressure_coverage
- station_id: '72577504111'
  name: EVAN-UINTA CO BURNS FLD AP
  ctry: US
  state: WY
  lat: 41.273
  lon: -111.031
  elev: 2175.9
  regime: mountain_west
  coastal: false
  desert: false
  lat_band: 35-45
  probe_pressure_cov: 0.0
  probe_ma1_cov: 0.0
  probe_precip_hours: 236.0
  accepted: false
  probe_reject: pressure_coverage
- station_id: '72486023154'
  name: ELY AIRPORT/YELLAND FIELD/AIRPORT
  ctry: US
  state: NV
  lat: 39.295
  lon: -114.847
  elev: 1904.9
  regime: mountain_west
  coastal: false
  desert: true
  lat_band: 35-45
  probe_pressure_cov: 0.999
  probe_ma1_cov: 0.974
  probe_precip_hours: 519.0
  accepted: true
  probe_reject: ''
- station_id: '72475623159'
  name: BRYCE CANYON AIRPORT
  ctry: US
  state: UT
  lat: 37.701
  lon: -112.149
  elev: 2309.9
  regime: mountain_west
  coastal: false
  desert: true
  lat_band: 35-45
  probe_pressure_cov: 0.231
  probe_ma1_cov: 0.0
  probe_precip_hours: 175.0
  accepted: false
  probe_reject: pressure_coverage
- station_id: '72589594236'
  name: KLAMATH FALLS AIRPORT
  ctry: US
  state: OR
  lat: 42.147
  lon: -121.726
  elev: 1244.5
  regime: mountain_west
  coastal: false
  desert: false
  lat_band: 35-45
  probe_pressure_cov: 0.946
  probe_ma1_cov: 0.0
  probe_precip_hours: 584.0
  accepted: true
  probe_reject: ''
- station_id: '72468094015'
  name: BUTTS AAF AIRPORT
  ctry: US
  state: CO
  lat: 38.678
  lon: -104.757
  elev: 1779.4
  regime: mountain_west
  coastal: false
  desert: true
  lat_band: 35-45
  probe_pressure_cov: 0.584
  probe_ma1_cov: 0.0
  probe_precip_hours: 429.0
  accepted: false
  probe_reject: pressure_coverage
- station_id: '72480023157'
  name: BISHOP AIRPORT
  ctry: US
  state: CA
  lat: 37.371
  lon: -118.359
  elev: 1252.9
  regime: mountain_west
  coastal: false
  desert: false
  lat_band: 35-45
  probe_pressure_cov: 0.996
  probe_ma1_cov: 0.974
  probe_precip_hours: 160.0
  accepted: true
  probe_reject: ''
- station_id: '72367623048'
  name: TUCUMCARI MUNICIPAL ARPT
  ctry: US
  state: NM
  lat: 35.181
  lon: -103.601
  elev: 1230.9
  regime: mountain_west
  coastal: false
  desert: false
  lat_band: 35-45
  probe_pressure_cov: 0.0
  probe_ma1_cov: 0.0
  probe_precip_hours: 111.0
  accepted: false
  probe_reject: pressure_coverage
- station_id: '72462023061'
  name: SAN LUIS VALLEY REGIONAL AIRPORT
  ctry: US
  state: CO
  lat: 37.439
  lon: -105.862
  elev: 2297.4
  regime: mountain_west
  coastal: false
  desert: true
  lat_band: 35-45
  probe_pressure_cov: 1.0
  probe_ma1_cov: 0.978
  probe_precip_hours: 436.0
  accepted: true
  probe_reject: ''
- station_id: '72365023050'
  name: ALBUQUERQUE INTL SUNPORT AIRPORT
  ctry: US
  state: NM
  lat: 35.042
  lon: -106.615
  elev: 1618.4
  regime: mountain_west
  coastal: false
  desert: true
  lat_band: 35-45
  probe_pressure_cov: 1.0
  probe_ma1_cov: 0.975
  probe_precip_hours: 328.0
  accepted: true
  probe_reject: ''
- station_id: '72583524119'
  name: BATTLE MOUNTAIN AIRPORT
  ctry: US
  state: NV
  lat: 40.612
  lon: -116.892
  elev: 1373.1
  regime: mountain_west
  coastal: false
  desert: false
  lat_band: 35-45
  probe_pressure_cov: null
  probe_ma1_cov: null
  probe_precip_hours: null
  accepted: false
  probe_reject: probe_year_2015_absent
- station_id: '72365823090'
  name: FOUR CORNERS REGIONAL ARPT
  ctry: US
  state: NM
  lat: 36.744
  lon: -108.229
  elev: 1676.2
  regime: mountain_west
  coastal: false
  desert: true
  lat_band: 35-45
  probe_pressure_cov: 0.955
  probe_ma1_cov: 0.0
  probe_precip_hours: 396.0
  accepted: true
  probe_reject: ''
- station_id: '72666494173'
  name: YELLOWSTONE
  ctry: US
  state: WY
  lat: 44.545
  lon: -110.422
  elev: 2372.0
  regime: mountain_west
  coastal: false
  desert: false
  lat_band: 35-45
  probe_pressure_cov: 0.366
  probe_ma1_cov: 0.0
  probe_precip_hours: 217.0
  accepted: false
  probe_reject: pressure_coverage
- station_id: '72564524022'
  name: LARAMIE REGIONAL AIRPORT
  ctry: US
  state: WY
  lat: 41.317
  lon: -105.673
  elev: 2216.8
  regime: mountain_west
  coastal: false
  desert: false
  lat_band: 35-45
  probe_pressure_cov: 0.893
  probe_ma1_cov: 0.0
  probe_precip_hours: 573.0
  accepted: true
  probe_reject: ''
- station_id: '72582524121'
  name: ELKO REGIONAL AIRPORT
  ctry: US
  state: NV
  lat: 40.824
  lon: -115.786
  elev: 1540.5
  regime: mountain_west
  coastal: false
  desert: false
  lat_band: 35-45
  probe_pressure_cov: 0.937
  probe_ma1_cov: 0.0
  probe_precip_hours: 488.0
  accepted: true
  probe_reject: ''
- station_id: '72565003017'
  name: DENVER INTERNATIONAL AIRPORT
  ctry: US
  state: CO
  lat: 39.847
  lon: -104.656
  elev: 1647.2
  regime: mountain_west
  coastal: false
  desert: true
  lat_band: 35-45
  probe_pressure_cov: 0.999
  probe_ma1_cov: 0.971
  probe_precip_hours: 648.0
  accepted: true
  probe_reject: ''
- station_id: '72464523070'
  name: PERRY STOKES AIRPORT
  ctry: US
  state: CO
  lat: 37.262
  lon: -104.332
  elev: 1749.3
  regime: mountain_west
  coastal: false
  desert: true
  lat_band: 35-45
  probe_pressure_cov: 0.96
  probe_ma1_cov: 0.0
  probe_precip_hours: 254.0
  accepted: true
  probe_reject: ''
- station_id: '72469824015'
  name: COLORADO PLAINS RGNL ARPT
  ctry: US
  state: CO
  lat: 40.174
  lon: -103.215
  elev: 1428.0
  regime: mountain_west
  coastal: false
  desert: false
  lat_band: 35-45
  probe_pressure_cov: 0.962
  probe_ma1_cov: 0.0
  probe_precip_hours: 556.0
  accepted: true
  probe_reject: ''
- station_id: '72578524145'
  name: IDAHO FALLS REGIONAL ARPT
  ctry: US
  state: ID
  lat: 43.52
  lon: -112.068
  elev: 1442.7
  regime: mountain_west
  coastal: false
  desert: false
  lat_band: 35-45
  probe_pressure_cov: 0.841
  probe_ma1_cov: 0.0
  probe_precip_hours: 597.0
  accepted: false
  probe_reject: pressure_coverage
- station_id: '72584523225'
  name: BLUE CANYON - NYACK ARPT
  ctry: US
  state: CA
  lat: 39.276
  lon: -120.709
  elev: 1611.2
  regime: mountain_west
  coastal: false
  desert: false
  lat_band: 35-45
  probe_pressure_cov: 0.934
  probe_ma1_cov: 0.0
  probe_precip_hours: 605.0
  accepted: true
  probe_reject: ''
- station_id: '72365623049'
  name: SANTA FE MUNICIPAL AIRPORT
  ctry: US
  state: NM
  lat: 35.611
  lon: -106.096
  elev: 1916.3
  regime: mountain_west
  coastal: false
  desert: true
  lat_band: 35-45
  probe_pressure_cov: 0.96
  probe_ma1_cov: 0.0
  probe_precip_hours: 411.0
  accepted: true
  probe_reject: ''
- station_id: '72475593129'
  name: CEDAR CITY REGIONAL ARPT
  ctry: US
  state: UT
  lat: 37.707
  lon: -113.097
  elev: 1703.8
  regime: mountain_west
  coastal: false
  desert: true
  lat_band: 35-45
  probe_pressure_cov: 0.993
  probe_ma1_cov: 0.077
  probe_precip_hours: 582.0
  accepted: true
  probe_reject: ''
- station_id: '72574424027'
  name: RCK SRINGS-SWETWTER CO APT
  ctry: US
  state: WY
  lat: 41.595
  lon: -109.053
  elev: 2060.0
  regime: mountain_west
  coastal: false
  desert: false
  lat_band: 35-45
  probe_pressure_cov: 0.999
  probe_ma1_cov: 0.159
  probe_precip_hours: 560.0
  accepted: true
  probe_reject: ''
- station_id: '72575524101'
  name: HILL AFB AIRPORT
  ctry: US
  state: UT
  lat: 41.117
  lon: -111.967
  elev: 1459.7
  regime: mountain_west
  coastal: false
  desert: false
  lat_band: 35-45
  probe_pressure_cov: 0.932
  probe_ma1_cov: 0.0
  probe_precip_hours: 854.0
  accepted: true
  probe_reject: ''
- station_id: '72575024126'
  name: OGDEN-HINCKLEY AIRPORT
  ctry: US
  state: UT
  lat: 41.194
  lon: -112.017
  elev: 1356.1
  regime: mountain_west
  coastal: false
  desert: false
  lat_band: 35-45
  probe_pressure_cov: 0.627
  probe_ma1_cov: 0.0
  probe_precip_hours: 567.0
  accepted: false
  probe_reject: pressure_coverage
- station_id: '74531093065'
  name: USAF ACADEMY AIRSTRIP AIRPORT
  ctry: US
  state: CO
  lat: 38.967
  lon: -104.817
  elev: 2003.2
  regime: mountain_west
  coastal: false
  desert: true
  lat_band: 35-45
  probe_pressure_cov: 0.411
  probe_ma1_cov: 0.0
  probe_precip_hours: 320.0
  accepted: false
  probe_reject: pressure_coverage
- station_id: '72564024018'
  name: CHEYENNE AIRPORT
  ctry: US
  state: WY
  lat: 41.158
  lon: -104.808
  elev: 1864.9
  regime: mountain_west
  coastal: false
  desert: false
  lat_band: 35-45
  probe_pressure_cov: 0.999
  probe_ma1_cov: 0.966
  probe_precip_hours: 718.0
  accepted: true
  probe_reject: ''
- station_id: '72469523036'
  name: BUCKLEY AIR FORCE BASE
  ctry: US
  state: CO
  lat: 39.717
  lon: -104.75
  elev: 1726.1
  regime: mountain_west
  coastal: false
  desert: true
  lat_band: 35-45
  probe_pressure_cov: 0.968
  probe_ma1_cov: 0.0
  probe_precip_hours: 734.0
  accepted: true
  probe_reject: ''
- station_id: '72578624151'
  name: MALAD CITY AIRPORT
  ctry: US
  state: ID
  lat: 42.189
  lon: -112.249
  elev: 1384.7
  regime: mountain_west
  coastal: false
  desert: false
  lat_band: 35-45
  probe_pressure_cov: 0.0
  probe_ma1_cov: 0.0
  probe_precip_hours: 0.0
  accepted: false
  probe_reject: pressure_coverage
- station_id: '72466093037'
  name: CITY OF COLORADO SPRINGS MUNICIPAL AP
  ctry: US
  state: CO
  lat: 38.809
  lon: -104.689
  elev: 1884.2
  regime: mountain_west
  coastal: false
  desert: true
  lat_band: 35-45
  probe_pressure_cov: 0.997
  probe_ma1_cov: 0.0
  probe_precip_hours: 760.0
  accepted: true
  probe_reject: ''
- station_id: '72683094185'
  name: BURNS MUNICIPAL AIRPORT
  ctry: US
  state: OR
  lat: 43.595
  lon: -118.958
  elev: 1262.8
  regime: mountain_west
  coastal: false
  desert: false
  lat_band: 35-45
  probe_pressure_cov: 0.998
  probe_ma1_cov: 0.972
  probe_precip_hours: 473.0
  accepted: true
  probe_reject: ''
- station_id: '72578024156'
  name: POCATELLO REGIONAL AIRPORT
  ctry: US
  state: ID
  lat: 42.92
  lon: -112.572
  elev: 1356.6
  regime: mountain_west
  coastal: false
  desert: false
  lat_band: 35-45
  probe_pressure_cov: 1.0
  probe_ma1_cov: 0.98
  probe_precip_hours: 698.0
  accepted: true
  probe_reject: ''
- station_id: '72666024029'
  name: SHERIDAN COUNTY AIRPORT
  ctry: US
  state: WY
  lat: 44.76
  lon: -106.974
  elev: 1210.4
  regime: mountain_west
  coastal: false
  desert: false
  lat_band: 35-45
  probe_pressure_cov: 0.996
  probe_ma1_cov: 0.977
  probe_precip_hours: 627.0
  accepted: true
  probe_reject: ''
- station_id: '72403093738'
  name: WASHINGTON DULLES INTERNATIONAL AP
  ctry: US
  state: VA
  lat: 38.935
  lon: -77.447
  elev: 89.5
  regime: ne_continental
  coastal: true
  desert: false
  lat_band: 35-45
  probe_pressure_cov: 1.0
  probe_ma1_cov: 0.979
  probe_precip_hours: 917.0
  accepted: true
  probe_reject: ''
- station_id: '72402093739'
  name: WALLOPS FLIGHT FACILITY AIRPORT
  ctry: US
  state: VA
  lat: 37.937
  lon: -75.466
  elev: 9.7
  regime: ne_continental
  coastal: true
  desert: false
  lat_band: 35-45
  probe_pressure_cov: 0.99
  probe_ma1_cov: 0.902
  probe_precip_hours: 872.0
  accepted: true
  probe_reject: ''
- station_id: '72308313763'
  name: FRANKLIN MUNICIPAL-JOHN BEVERLY ROSE AIRPORT
  ctry: US
  state: VA
  lat: 36.698
  lon: -76.903
  elev: 12.5
  regime: ne_continental
  coastal: true
  desert: false
  lat_band: 35-45
  probe_pressure_cov: 0.0
  probe_ma1_cov: 0.0
  probe_precip_hours: 0.0
  accepted: false
  probe_reject: pressure_coverage
- station_id: '72408594732'
  name: NE PHILADELPHIA AIRPORT
  ctry: US
  state: PA
  lat: 40.079
  lon: -75.013
  elev: 32.9
  regime: ne_continental
  coastal: true
  desert: false
  lat_band: 35-45
  probe_pressure_cov: 0.966
  probe_ma1_cov: 0.0
  probe_precip_hours: 827.0
  accepted: true
  probe_reject: ''
- station_id: '72401013740'
  name: RICHMOND INTERNATIONAL AIRPORT
  ctry: US
  state: VA
  lat: 37.512
  lon: -77.323
  elev: 50.7
  regime: ne_continental
  coastal: true
  desert: false
  lat_band: 35-45
  probe_pressure_cov: 0.999
  probe_ma1_cov: 0.975
  probe_precip_hours: 926.0
  accepted: true
  probe_reject: ''
- station_id: '72503794745'
  name: WESTCHESTER COUNTY AIRPORT
  ctry: US
  state: NY
  lat: 41.062
  lon: -73.705
  elev: 112.9
  regime: ne_continental
  coastal: true
  desert: false
  lat_band: 35-45
  probe_pressure_cov: 0.92
  probe_ma1_cov: 0.0
  probe_precip_hours: 814.0
  accepted: true
  probe_reject: ''
- station_id: '72618514605'
  name: AUGUSTA STATE AIRPORT
  ctry: US
  state: ME
  lat: 44.316
  lon: -69.797
  elev: 106.4
  regime: ne_continental
  coastal: true
  desert: false
  lat_band: 35-45
  probe_pressure_cov: 0.949
  probe_ma1_cov: 0.0
  probe_precip_hours: 1009.0
  accepted: true
  probe_reject: ''
- station_id: '72406093721'
  name: BALTIMORE-WASHINGTON INTL AIRPORT
  ctry: US
  state: MD
  lat: 39.173
  lon: -76.684
  elev: 42.0
  regime: ne_continental
  coastal: true
  desert: false
  lat_band: 35-45
  probe_pressure_cov: 1.0
  probe_ma1_cov: 0.916
  probe_precip_hours: 925.0
  accepted: true
  probe_reject: ''
- station_id: '72505894793'
  name: BLOCK ISLAND STATE AIRPORT
  ctry: US
  state: RI
  lat: 41.168
  lon: -71.578
  elev: 32.0
  regime: ne_continental
  coastal: true
  desert: false
  lat_band: 35-45
  probe_pressure_cov: 0.0
  probe_ma1_cov: 0.0
  probe_precip_hours: 492.0
  accepted: false
  probe_reject: pressure_coverage
- station_id: '72308793735'
  name: FELKER ARMY AIRFIELD
  ctry: US
  state: VA
  lat: 37.133
  lon: -76.6
  elev: 3.7
  regime: ne_continental
  coastal: true
  desert: false
  lat_band: 35-45
  probe_pressure_cov: 0.486
  probe_ma1_cov: 0.0
  probe_precip_hours: 552.0
  accepted: false
  probe_reject: pressure_coverage
- station_id: '72502594741'
  name: TETERBORO AIRPORT
  ctry: US
  state: NJ
  lat: 40.859
  lon: -74.056
  elev: 0.8
  regime: ne_continental
  coastal: true
  desert: false
  lat_band: 35-45
  probe_pressure_cov: 0.96
  probe_ma1_cov: 0.0
  probe_precip_hours: 914.0
  accepted: true
  probe_reject: ''
- station_id: '72403793728'
  name: DAVISON AAF AIRPORT
  ctry: US
  state: VA
  lat: 38.717
  lon: -77.183
  elev: 22.3
  regime: ne_continental
  coastal: true
  desert: false
  lat_band: 35-45
  probe_pressure_cov: 0.945
  probe_ma1_cov: 0.0
  probe_precip_hours: 966.0
  accepted: true
  probe_reject: ''
- station_id: '72409514792'
  name: TRENTON MERCER AIRPORT
  ctry: US
  state: NJ
  lat: 40.277
  lon: -74.816
  elev: 57.9
  regime: ne_continental
  coastal: true
  desert: false
  lat_band: 35-45
  probe_pressure_cov: 0.731
  probe_ma1_cov: 0.0
  probe_precip_hours: 710.0
  accepted: false
  probe_reject: pressure_coverage
- station_id: '74598013702'
  name: LANGLEY AFB AIRPORT
  ctry: US
  state: VA
  lat: 37.083
  lon: -76.36
  elev: 3.1
  regime: ne_continental
  coastal: true
  desert: false
  lat_band: 35-45
  probe_pressure_cov: 0.955
  probe_ma1_cov: 0.0
  probe_precip_hours: 1013.0
  accepted: true
  probe_reject: ''
- station_id: '72507014765'
  name: THEODORE F GREEN STATE AIRPORT
  ctry: US
  state: RI
  lat: 41.723
  lon: -71.432
  elev: 15.4
  regime: ne_continental
  coastal: true
  desert: false
  lat_band: 35-45
  probe_pressure_cov: 0.999
  probe_ma1_cov: 0.965
  probe_precip_hours: 1076.0
  accepted: true
  probe_reject: ''
- station_id: '72503814714'
  name: STEWART INTERNATIONAL AIRPORT
  ctry: US
  state: NY
  lat: 41.5
  lon: -74.1
  elev: 149.7
  regime: ne_continental
  coastal: true
  desert: false
  lat_band: 35-45
  probe_pressure_cov: 0.003
  probe_ma1_cov: 0.0
  probe_precip_hours: 626.0
  accepted: false
  probe_reject: pressure_coverage
- station_id: '72504614707'
  name: GROTON-NEW LONDON AIRPORT
  ctry: US
  state: CT
  lat: 41.328
  lon: -72.049
  elev: 2.5
  regime: ne_continental
  coastal: true
  desert: false
  lat_band: 35-45
  probe_pressure_cov: 0.0
  probe_ma1_cov: 0.0
  probe_precip_hours: 508.0
  accepted: false
  probe_reject: pressure_coverage
- station_id: '72228013876'
  name: BIRMINGHAM INTERNATIONAL AIRPORT
  ctry: US
  state: AL
  lat: 33.565
  lon: -86.745
  elev: 187.7
  regime: ne_continental
  coastal: false
  desert: false
  lat_band: 24-35
  probe_pressure_cov: 0.992
  probe_ma1_cov: 0.077
  probe_precip_hours: 882.0
  accepted: true
  probe_reject: ''
- station_id: '72226513821'
  name: MAXWELL AFB AIRPORT
  ctry: US
  state: AL
  lat: 32.383
  lon: -86.35
  elev: 52.1
  regime: ne_continental
  coastal: false
  desert: false
  lat_band: 24-35
  probe_pressure_cov: 0.917
  probe_ma1_cov: 0.0
  probe_precip_hours: 666.0
  accepted: true
  probe_reject: ''
- station_id: '72332093862'
  name: TUPELO REGIONAL AIRPORT
  ctry: US
  state: MS
  lat: 34.262
  lon: -88.771
  elev: 103.8
  regime: ne_continental
  coastal: false
  desert: false
  lat_band: 24-35
  probe_pressure_cov: 0.999
  probe_ma1_cov: 0.918
  probe_precip_hours: 835.0
  accepted: true
  probe_reject: ''
- station_id: '72228693806'
  name: TUSCALOOSA MUNICIPAL ARPT
  ctry: US
  state: AL
  lat: 33.212
  lon: -87.616
  elev: 45.3
  regime: ne_continental
  coastal: false
  desert: false
  lat_band: 24-35
  probe_pressure_cov: 0.001
  probe_ma1_cov: 0.0
  probe_precip_hours: 268.0
  accepted: false
  probe_reject: pressure_coverage
- station_id: '72311013873'
  name: ATHENS/BEN EPPS AIRPORT
  ctry: US
  state: GA
  lat: 33.948
  lon: -83.327
  elev: 239.0
  regime: ne_continental
  coastal: false
  desert: false
  lat_band: 24-35
  probe_pressure_cov: 0.999
  probe_ma1_cov: 0.972
  probe_precip_hours: 813.0
  accepted: true
  probe_reject: ''
- station_id: '72228713871'
  name: ANNISTON METROPOLITAN ARPT
  ctry: US
  state: AL
  lat: 33.59
  lon: -85.848
  elev: 181.8
  regime: ne_continental
  coastal: false
  desert: false
  lat_band: 24-35
  probe_pressure_cov: 0.953
  probe_ma1_cov: 0.0
  probe_precip_hours: 675.0
  accepted: true
  probe_reject: ''
- station_id: '72225013829'
  name: LAWSON AAF AIRPORT
  ctry: US
  state: GA
  lat: 32.337
  lon: -84.991
  elev: 70.7
  regime: ne_continental
  coastal: false
  desert: false
  lat_band: 24-35
  probe_pressure_cov: 0.941
  probe_ma1_cov: 0.0
  probe_precip_hours: 681.0
  accepted: true
  probe_reject: ''
- station_id: '72218003820'
  name: AUGUSTA REGIONAL AT BUSH FIELD AP
  ctry: US
  state: GA
  lat: 33.365
  lon: -81.964
  elev: 40.9
  regime: ne_continental
  coastal: false
  desert: false
  lat_band: 24-35
  probe_pressure_cov: 0.997
  probe_ma1_cov: 0.973
  probe_precip_hours: 635.0
  accepted: true
  probe_reject: ''
- station_id: '72323003856'
  name: HUNTSVILLE INTL/C.T.JONES FIELD AIRPORT
  ctry: US
  state: AL
  lat: 34.644
  lon: -86.786
  elev: 190.0
  regime: ne_continental
  coastal: false
  desert: false
  lat_band: 24-35
  probe_pressure_cov: 0.999
  probe_ma1_cov: 0.979
  probe_precip_hours: 838.0
  accepted: true
  probe_reject: ''
- station_id: '72330613825'
  name: COLUMBUS AFB AIRPORT
  ctry: US
  state: MS
  lat: 33.65
  lon: -88.45
  elev: 66.8
  regime: ne_continental
  coastal: false
  desert: false
  lat_band: 24-35
  probe_pressure_cov: 0.95
  probe_ma1_cov: 0.0
  probe_precip_hours: 854.0
  accepted: true
  probe_reject: ''
- station_id: '72743094850'
  name: MARQUETTE MICHIGAN COUNTY AP (WFO)
  ctry: US
  state: MI
  lat: 46.531
  lon: -87.549
  elev: 431.3
  regime: ne_continental
  coastal: false
  desert: false
  lat_band: 45-55
  probe_pressure_cov: 0.0
  probe_ma1_cov: 0.0
  probe_precip_hours: 0.0
  accepted: false
  probe_reject: pressure_coverage
- station_id: '72744014858'
  name: HOUGHTON COUNTY MEMO ARPT
  ctry: US
  state: MI
  lat: 47.166
  lon: -88.481
  elev: 323.9
  regime: ne_continental
  coastal: false
  desert: false
  lat_band: 45-55
  probe_pressure_cov: 0.933
  probe_ma1_cov: 0.0
  probe_precip_hours: 1511.0
  accepted: true
  probe_reject: ''
- station_id: '72639094849'
  name: ALPENA COUNTY REGIONAL AIRPORT
  ctry: US
  state: MI
  lat: 45.072
  lon: -83.565
  elev: 208.3
  regime: ne_continental
  coastal: false
  desert: false
  lat_band: 45-55
  probe_pressure_cov: 0.999
  probe_ma1_cov: 0.977
  probe_precip_hours: 1100.0
  accepted: true
  probe_reject: ''
- station_id: '72309793743'
  name: BOGUE FIELD MARINE CORPS AUXILIARY FIELD
  ctry: US
  state: NC
  lat: 34.683
  lon: -77.033
  elev: 6.4
  regime: ne_continental
  coastal: true
  desert: false
  lat_band: 24-35
  probe_pressure_cov: 0.279
  probe_ma1_cov: 0.014
  probe_precip_hours: 236.0
  accepted: false
  probe_reject: pressure_coverage
- station_id: '72207003822'
  name: SAVANNAH/HILTON HEAD INTL AIRPORT
  ctry: US
  state: GA
  lat: 32.131
  lon: -81.202
  elev: 8.7
  regime: ne_continental
  coastal: true
  desert: false
  lat_band: 24-35
  probe_pressure_cov: 1.0
  probe_ma1_cov: 0.975
  probe_precip_hours: 630.0
  accepted: true
  probe_reject: ''
- station_id: '72208013880'
  name: CHARLESTON AFB/INTERNATIONAL AIRPORT
  ctry: US
  state: SC
  lat: 32.899
  lon: -80.041
  elev: 11.8
  regime: ne_continental
  coastal: true
  desert: false
  lat_band: 24-35
  probe_pressure_cov: 0.999
  probe_ma1_cov: 0.973
  probe_precip_hours: 749.0
  accepted: true
  probe_reject: ''
- station_id: '71627094792'
  name: MONTREAL/TRUDEAU INT
  ctry: CA
  state: QC
  lat: 45.467
  lon: -73.733
  elev: 36.0
  regime: ne_continental
  coastal: true
  desert: false
  lat_band: 45-55
  probe_pressure_cov: 0.975
  probe_ma1_cov: 0.619
  probe_precip_hours: 1281.0
  accepted: true
  probe_reject: ''
- station_id: '72518014735'
  name: ALBANY INTERNATIONAL AIRPORT
  ctry: US
  state: NY
  lat: 42.747
  lon: -73.799
  elev: 85.4
  regime: ne_continental
  coastal: false
  desert: false
  lat_band: 35-45
  probe_pressure_cov: 1.0
  probe_ma1_cov: 0.978
  probe_precip_hours: 1041.0
  accepted: true
  probe_reject: ''
- station_id: '72534014819'
  name: CHICAGO MIDWAY INTL ARPT
  ctry: US
  state: IL
  lat: 41.784
  lon: -87.755
  elev: 185.8
  regime: ne_continental
  coastal: false
  desert: false
  lat_band: 35-45
  probe_pressure_cov: 0.956
  probe_ma1_cov: 0.387
  probe_precip_hours: 952.0
  accepted: true
  probe_reject: ''
- station_id: '72537094847'
  name: DETROIT METRO WAYNE COUNTY AIRPORT
  ctry: US
  state: MI
  lat: 42.231
  lon: -83.331
  elev: 191.9
  regime: ne_continental
  coastal: false
  desert: false
  lat_band: 35-45
  probe_pressure_cov: 1.0
  probe_ma1_cov: 0.975
  probe_precip_hours: 939.0
  accepted: true
  probe_reject: ''
- station_id: '72424013807'
  name: GODMAN AAF AIRPORT
  ctry: US
  state: KY
  lat: 37.9
  lon: -85.967
  elev: 230.1
  regime: ne_continental
  coastal: false
  desert: false
  lat_band: 35-45
  probe_pressure_cov: 0.966
  probe_ma1_cov: 0.0
  probe_precip_hours: 1264.0
  accepted: true
  probe_reject: ''
- station_id: '72537514822'
  name: DETROIT CITY AIRPORT
  ctry: US
  state: MI
  lat: 42.407
  lon: -83.009
  elev: 189.8
  regime: ne_continental
  coastal: false
  desert: false
  lat_band: 35-45
  probe_pressure_cov: 0.001
  probe_ma1_cov: 0.0
  probe_precip_hours: 659.0
  accepted: false
  probe_reject: pressure_coverage
- station_id: '72515004725'
  name: GREATER BINGHAMTON/E A LINK FIELD AP
  ctry: US
  state: NY
  lat: 42.207
  lon: -75.98
  elev: 485.7
  regime: ne_continental
  coastal: false
  desert: false
  lat_band: 35-45
  probe_pressure_cov: 0.998
  probe_ma1_cov: 0.982
  probe_precip_hours: 1267.0
  accepted: true
  probe_reject: ''
- station_id: '72428513812'
  name: RICKENBACKER INTL AIRPORT
  ctry: US
  state: OH
  lat: 39.817
  lon: -82.933
  elev: 226.8
  regime: ne_continental
  coastal: false
  desert: false
  lat_band: 35-45
  probe_pressure_cov: null
  probe_ma1_cov: null
  probe_precip_hours: null
  accepted: false
  probe_reject: probe_year_1998_absent
- station_id: '72637914845'
  name: MBS INTERNATIONAL AIRPORT
  ctry: US
  state: MI
  lat: 43.528
  lon: -84.081
  elev: 201.7
  regime: ne_continental
  coastal: false
  desert: false
  lat_band: 35-45
  probe_pressure_cov: 0.935
  probe_ma1_cov: 0.0
  probe_precip_hours: 792.0
  accepted: true
  probe_reject: ''
- station_id: '74671693808'
  name: BOW GRN-WARREN CO. RGNL AP
  ctry: US
  state: KY
  lat: 36.965
  lon: -86.424
  elev: 159.3
  regime: ne_continental
  coastal: false
  desert: false
  lat_band: 35-45
  probe_pressure_cov: 0.908
  probe_ma1_cov: 0.0
  probe_precip_hours: 792.0
  accepted: true
  probe_reject: ''
- station_id: '72528704724'
  name: NIAGARA FALLS INTL AIRPORT
  ctry: US
  state: NY
  lat: 43.108
  lon: -78.938
  elev: 178.3
  regime: ne_continental
  coastal: false
  desert: false
  lat_band: 35-45
  probe_pressure_cov: 0.968
  probe_ma1_cov: 0.0
  probe_precip_hours: 1555.0
  accepted: true
  probe_reject: ''
- station_id: '72508014740'
  name: BRADLEY INTERNATIONAL AIRPORT
  ctry: US
  state: CT
  lat: 41.937
  lon: -72.682
  elev: 51.6
  regime: ne_continental
  coastal: false
  desert: false
  lat_band: 35-45
  probe_pressure_cov: 1.0
  probe_ma1_cov: 0.964
  probe_precip_hours: 1007.0
  accepted: true
  probe_reject: ''
- station_id: '72429613841'
  name: AIRBORNE AIRPARK AIRPORT
  ctry: US
  state: OH
  lat: 39.431
  lon: -83.777
  elev: 324.9
  regime: ne_continental
  coastal: false
  desert: false
  lat_band: 35-45
  probe_pressure_cov: 0.73
  probe_ma1_cov: 0.0
  probe_precip_hours: 809.0
  accepted: false
  probe_reject: pressure_coverage
- station_id: '72425003860'
  name: TRI-STATE/M.J.FERGUS
  ctry: US
  state: WV
  lat: 38.365
  lon: -82.555
  elev: 251.3
  regime: ne_continental
  coastal: false
  desert: false
  lat_band: 35-45
  probe_pressure_cov: 0.999
  probe_ma1_cov: 0.975
  probe_precip_hours: 1100.0
  accepted: true
  probe_reject: ''
- station_id: '72439093822'
  name: ABRAHAM LINCOLN CAPITAL AIRPORT
  ctry: US
  state: IL
  lat: 39.845
  lon: -89.684
  elev: 179.7
  regime: ne_continental
  coastal: false
  desert: false
  lat_band: 35-45
  probe_pressure_cov: 0.999
  probe_ma1_cov: 0.977
  probe_precip_hours: 881.0
  accepted: true
  probe_reject: ''
- station_id: '72411613868'
  name: NEW RIVER VALLEY AIRPORT
  ctry: US
  state: VA
  lat: 37.133
  lon: -80.683
  elev: 641.6
  regime: ne_continental
  coastal: false
  desert: false
  lat_band: 35-45
  probe_pressure_cov: 0.0
  probe_ma1_cov: 0.0
  probe_precip_hours: 0.0
  accepted: false
  probe_reject: pressure_coverage
- station_id: '72428014821'
  name: PORT COLUMBUS INTERNATIONAL AIRPORT
  ctry: US
  state: OH
  lat: 39.991
  lon: -82.877
  elev: 246.8
  regime: ne_continental
  coastal: false
  desert: false
  lat_band: 35-45
  probe_pressure_cov: 1.0
  probe_ma1_cov: 0.975
  probe_precip_hours: 991.0
  accepted: true
  probe_reject: ''
- station_id: '72637014826'
  name: BISHOP INTERNATIONAL AIRPORT
  ctry: US
  state: MI
  lat: 42.967
  lon: -83.75
  elev: 234.9
  regime: ne_continental
  coastal: false
  desert: false
  lat_band: 35-45
  probe_pressure_cov: 1.0
  probe_ma1_cov: 0.975
  probe_precip_hours: 897.0
  accepted: true
  probe_reject: ''
- station_id: '72512614736'
  name: ALTOONA-BLAIR COUNTY ARPT
  ctry: US
  state: PA
  lat: 40.3
  lon: -78.317
  elev: 446.6
  regime: ne_continental
  coastal: false
  desert: false
  lat_band: 35-45
  probe_pressure_cov: 0.945
  probe_ma1_cov: 0.0
  probe_precip_hours: 1043.0
  accepted: true
  probe_reject: ''
- station_id: '72537614853'
  name: WILLOW RUN AIRPORT
  ctry: US
  state: MI
  lat: 42.237
  lon: -83.526
  elev: 215.7
  regime: ne_continental
  coastal: false
  desert: false
  lat_band: 35-45
  probe_pressure_cov: 0.0
  probe_ma1_cov: 0.0
  probe_precip_hours: 621.0
  accepted: false
  probe_reject: pressure_coverage
- station_id: '72525014852'
  name: YOUNGSTOWN-WARREN REGIONAL AIRPORT
  ctry: US
  state: OH
  lat: 41.255
  lon: -80.674
  elev: 355.6
  regime: ne_continental
  coastal: false
  desert: false
  lat_band: 35-45
  probe_pressure_cov: 0.999
  probe_ma1_cov: 0.976
  probe_precip_hours: 1481.0
  accepted: true
  probe_reject: ''
- station_id: '72519014771'
  name: SYRACUSE HANCOCK INTERNATIONAL AP
  ctry: US
  state: NY
  lat: 43.111
  lon: -76.104
  elev: 124.9
  regime: ne_continental
  coastal: false
  desert: false
  lat_band: 35-45
  probe_pressure_cov: 0.999
  probe_ma1_cov: 0.98
  probe_precip_hours: 1530.0
  accepted: true
  probe_reject: ''
- station_id: '72635094860'
  name: GERALD R FORD INTERNATIONAL AIRPORT
  ctry: US
  state: MI
  lat: 42.882
  lon: -85.523
  elev: 240.3
  regime: ne_continental
  coastal: false
  desert: false
  lat_band: 35-45
  probe_pressure_cov: 1.0
  probe_ma1_cov: 0.981
  probe_precip_hours: 1049.0
  accepted: true
  probe_reject: ''
- station_id: '72401693736'
  name: CHARLOTTESVILLE ALBEMARLE ARPT
  ctry: US
  state: VA
  lat: 38.137
  lon: -78.455
  elev: 192.3
  regime: ne_continental
  coastal: false
  desert: false
  lat_band: 35-45
  probe_pressure_cov: 0.112
  probe_ma1_cov: 0.0
  probe_precip_hours: 502.0
  accepted: false
  probe_reject: pressure_coverage
- station_id: '72536094830'
  name: TOLEDO EXPRESS AIRPORT
  ctry: US
  state: OH
  lat: 41.587
  lon: -83.805
  elev: 205.5
  regime: ne_continental
  coastal: false
  desert: false
  lat_band: 35-45
  probe_pressure_cov: 0.997
  probe_ma1_cov: 0.973
  probe_precip_hours: 797.0
  accepted: true
  probe_reject: ''
- station_id: '72334603811'
  name: MCKELLAR-SIPES RGNL ARPT
  ctry: US
  state: TN
  lat: 35.593
  lon: -88.917
  elev: 129.2
  regime: ne_continental
  coastal: false
  desert: false
  lat_band: 35-45
  probe_pressure_cov: 0.948
  probe_ma1_cov: 0.0
  probe_precip_hours: 720.0
  accepted: true
  probe_reject: ''
- station_id: '72411013741'
  name: ROANOKE REGIONAL/WOODRUM FIELD AP
  ctry: US
  state: VA
  lat: 37.317
  lon: -79.974
  elev: 346.8
  regime: ne_continental
  coastal: false
  desert: false
  lat_band: 35-45
  probe_pressure_cov: 0.997
  probe_ma1_cov: 0.972
  probe_precip_hours: 904.0
  accepted: true
  probe_reject: ''
- station_id: '72539514833'
  name: JAKSON CO-RYNOLDS FLD ARPT
  ctry: US
  state: MI
  lat: 42.264
  lon: -84.456
  elev: 295.9
  regime: ne_continental
  coastal: false
  desert: false
  lat_band: 35-45
