stations:
- station_id: '70326025503'
  name: KING SALMON AIRPORT
  ctry: US
  state: AK
  lat: 58.683
  lon: -156.656
  elev: 20.0
  regime: boreal_subarctic
  coastal: true
  desert: false
  lat_band: 55+
  probe_pressure_cov: 0.998
  probe_ma1_cov: 0.966
  probe_precip_hours: 1643.0
  accepted: true
  probe_reject: ''
- station_id: '70395025325'
  name: KETCHIKAN INTL AIRPORT
  ctry: US
  state: AK
  lat: 55.359
  lon: -131.722
  elev: 25.7
  regime: boreal_subarctic
  coastal: true
  desert: false
  lat_band: 55+
  probe_pressure_cov: 0.938
  probe_ma1_cov: 0.0
  probe_precip_hours: 2618.0
  accepted: true
  probe_reject: ''
- station_id: '70350025501'
  name: KODIAK AIRPORT
  ctry: US
  state: AK
  lat: 57.751
  lon: -152.488
  elev: 5.0
  regime: boreal_subarctic
  coastal: true
  desert: false
  lat_band: 55+
  probe_pressure_cov: 0.999
  probe_ma1_cov: 0.97
  probe_precip_hours: 2404.0
  accepted: true
  probe_reject: ''
- station_id: '70296026410'
  name: M.K.(MUDHOLE) SMITH ARPT
  ctry: US
  state: AK
  lat: 60.486
  lon: -145.445
  elev: 14.7
  regime: boreal_subarctic
  coastal: true
  desert: false
  lat_band: 55+
  probe_pressure_cov: 0.921
  probe_ma1_cov: 0.0
  probe_precip_hours: 2351.0
  accepted: true
  probe_reject: ''
- station_id: '70341025507'
  name: HOMER AIRPORT
  ctry: US
  state: AK
  lat: 59.642
  lon: -151.491
  elev: 19.1
  regime: boreal_subarctic
  coastal: true
  desert: false
  lat_band: 55+
  probe_pressure_cov: 0.969
  probe_ma1_cov: 0.063
  probe_precip_hours: 1215.0
  accepted: true
  probe_reject: ''
- station_id: '70200026617'
  name: NOME AIRPORT
  ctry: US
  state: AK
  lat: 64.511
  lon: -165.44
  elev: 5.4
  regime: boreal_subarctic
  coastal: true
  desert: false
  lat_band: 55+
  probe_pressure_cov: 0.998
  probe_ma1_cov: 0.972
  probe_precip_hours: 1465.0
  accepted: true
  probe_reject: ''
- station_id: '70386025329'
  name: JAMES A JOHNSON AIRPORT
  ctry: US
  state: AK
  lat: 56.806
  lon: -132.937
  elev: 32.6
  regime: boreal_subarctic
  coastal: true
  desert: false
  lat_band: 55+
  probe_pressure_cov: 0.0
  probe_ma1_cov: 0.0
  probe_precip_hours: 1318.0
  accepted: false
  probe_reject: pressure_coverage
- station_id: '70367025322'
  name: GUSTAVUS
  ctry: US
  state: AK
  lat: 58.411
  lon: -135.709
  elev: 12.2
  regime: boreal_subarctic
  coastal: true
  desert: false
  lat_band: 55+
  probe_pressure_cov: 0.0
  probe_ma1_cov: 0.0
  probe_precip_hours: 802.0
  accepted: false
  probe_reject: pressure_coverage
- station_id: '70271026425'
  name: GULKANA AIRPORT
  ctry: US
  state: AK
  lat: 62.159
  lon: -145.459
  elev: 481.1
  regime: boreal_subarctic
  coastal: false
  desert: false
  lat_band: 55+
  probe_pressure_cov: 0.705
  probe_ma1_cov: 0.055
  probe_precip_hours: 622.0
  accepted: false
  probe_reject: pressure_coverage
- station_id: '70232026516'
  name: ANIAK AIRPORT
  ctry: US
  state: AK
  lat: 61.582
  lon: -159.543
  elev: 25.9
  regime: boreal_subarctic
  coastal: false
  desert: false
  lat_band: 55+
  probe_pressure_cov: 0.002
  probe_ma1_cov: 0.002
  probe_precip_hours: 586.0
  accepted: false
  probe_reject: pressure_coverage
- station_id: '70267026415'
  name: ALLEN ARMY AIRFIELD
  ctry: US
  state: AK
  lat: 63.993
  lon: -145.721
  elev: 388.1
  regime: boreal_subarctic
  coastal: false
  desert: false
  lat_band: 55+
  probe_pressure_cov: 0.971
  probe_ma1_cov: 0.002
  probe_precip_hours: 919.0
  accepted: true
  probe_reject: ''
- station_id: '70261026411'
  name: FAIRBANKS INTERNATIONAL
  ctry: US
  state: AK
  lat: 64.803
  lon: -147.876
  elev: 131.1
  regime: boreal_subarctic
  coastal: false
  desert: false
  lat_band: 55+
  probe_pressure_cov: 0.999
  probe_ma1_cov: 0.971
  probe_precip_hours: 1230.0
  accepted: true
  probe_reject: ''
- station_id: '70178026529'
  name: RALPH M CALHOUN MEML ARPT
  ctry: US
  state: AK
  lat: 65.173
  lon: -152.107
  elev: 68.7
  regime: boreal_subarctic
  coastal: false
  desert: false
  lat_band: 55+
  probe_pressure_cov: 0.298
  probe_ma1_cov: 0.0
  probe_precip_hours: 710.0
  accepted: false
  probe_reject: pressure_coverage
- station_id: '72659014929'
  name: ABERDEEN REGIONAL AIRPORT
  ctry: US
  state: SD
  lat: 45.444
  lon: -98.414
  elev: 395.6
  regime: great_plains
  coastal: false
  desert: false
  lat_band: 45-55
  probe_pressure_cov: 1.0
  probe_ma1_cov: 0.981
  probe_precip_hours: 567.0
  accepted: true
  probe_reject: ''
- station_id: '72655014926'
  name: ST CLOUD REGIONAL AIRPORT
  ctry: US
  state: MN
  lat: 45.544
  lon: -94.052
  elev: 310.2
  regime: great_plains
  coastal: false
  desert: false
  lat_band: 45-55
  probe_pressure_cov: 0.997
  probe_ma1_cov: 0.977
  probe_precip_hours: 675.0
  accepted: true
  probe_reject: ''
- station_id: '72341993992'
  name: S. AR RGNL AT GDWIN FLD AP
  ctry: US
  state: AR
  lat: 33.221
  lon: -92.814
  elev: 78.0
  regime: great_plains
  coastal: false
  desert: false
  lat_band: 24-35
  probe_pressure_cov: 0.957
  probe_ma1_cov: 0.0
  probe_precip_hours: 718.0
  accepted: true
  probe_reject: ''
- station_id: '72259003927'
  name: DALLAS/FT WORTH INTERNATIONAL AP
  ctry: US
  state: TX
  lat: 32.897
  lon: -97.022
  elev: 165.7
  regime: great_plains
  coastal: false
  desert: false
  lat_band: 24-35
  probe_pressure_cov: 1.0
  probe_ma1_cov: 0.979
  probe_precip_hours: 562.0
  accepted: true
  probe_reject: ''
- station_id: '72259513911'
  name: FORT WORTH NAVAL AIR STATION JRB/CARSWELL FIELD
  ctry: US
  state: TX
  lat: 32.767
  lon: -97.45
  elev: 185.3
  regime: great_plains
  coastal: false
  desert: false
  lat_band: 24-35
  probe_pressure_cov: 0.857
  probe_ma1_cov: 0.009
  probe_precip_hours: 494.0
  accepted: true
  probe_reject: ''
- station_id: '72548514940'
  name: MASON CITY MUNICIPAL ARPT
  ctry: US
  state: IA
  lat: 43.154
  lon: -93.326
  elev: 362.1
  regime: great_plains
  coastal: false
  desert: false
  lat_band: 35-45
  probe_pressure_cov: 0.999
  probe_ma1_cov: 0.159
  probe_precip_hours: 733.0
  accepted: true
  probe_reject: ''
- station_id: '72354013919'
  name: TINKER AFB AIRPORT
  ctry: US
  state: OK
  lat: 35.417
  lon: -97.383
  elev: 393.5
  regime: great_plains
  coastal: false
  desert: false
  lat_band: 35-45
  probe_pressure_cov: 0.956
  probe_ma1_cov: 0.0
  probe_precip_hours: 741.0
  accepted: true
  probe_reject: ''
- station_id: '72651014944'
  name: JOE FOSS FIELD AIRPORT
  ctry: US
  state: SD
  lat: 43.578
  lon: -96.754
  elev: 432.4
  regime: great_plains
  coastal: false
  desert: false
  lat_band: 35-45
  probe_pressure_cov: 1.0
  probe_ma1_cov: 0.981
  probe_precip_hours: 902.0
  accepted: true
  probe_reject: ''
- station_id: '72562624091'
  name: IMPERIAL MUNICIPAL AIRPORT
  ctry: US
  state: NE
  lat: 40.511
  lon: -101.624
  elev: 996.5
  regime: great_plains
  coastal: false
  desert: false
  lat_band: 35-45
  probe_pressure_cov: 0.0
  probe_ma1_cov: 0.0
  probe_precip_hours: 241.0
  accepted: false
  probe_reject: pressure_coverage
- station_id: '72465023065'
  name: RENNER FIELD/GOODLAND MINI AIRPORT
  ctry: US
  state: KS
  lat: 39.367
  lon: -101.693
  elev: 1110.5
  regime: great_plains
  coastal: false
  desert: false
  lat_band: 35-45
  probe_pressure_cov: 0.999
  probe_ma1_cov: 0.976
  probe_precip_hours: 547.0
  accepted: true
  probe_reject: ''
- station_id: '72455013947'
  name: MARSHALL ARMY AIRFIELD
  ctry: US
  state: KS
  lat: 39.05
  lon: -96.767
  elev: 324.6
  regime: great_plains
  coastal: false
  desert: false
  lat_band: 35-45
  probe_pressure_cov: 0.221
  probe_ma1_cov: 0.0
  probe_precip_hours: 154.0
  accepted: false
  probe_reject: pressure_coverage
- station_id: '72349513987'
  name: JOPLIN REGIONAL AIRPORT
  ctry: US
  state: MO
  lat: 37.152
  lon: -94.495
  elev: 296.4
  regime: great_plains
  coastal: false
  desert: false
  lat_band: 35-45
  probe_pressure_cov: 0.965
  probe_ma1_cov: 0.0
  probe_precip_hours: 761.0
  accepted: true
  probe_reject: ''
- station_id: '72662524006'
  name: ELLSWORTH AIR FORCE BASE
  ctry: US
  state: SD
  lat: 44.15
  lon: -103.1
  elev: 999.1
  regime: great_plains
  coastal: false
  desert: false
  lat_band: 35-45
  probe_pressure_cov: 0.956
  probe_ma1_cov: 0.0
  probe_precip_hours: 910.0
  accepted: true
  probe_reject: ''
- station_id: '72253512909'
  name: LACKLAND AIR FORCE BASE (KELLY FIELD ANNEX)
  ctry: US
  state: TX
  lat: 29.383
  lon: -98.583
  elev: 210.3
  regime: gulf_subtropical
  coastal: false
  desert: false
  lat_band: 24-35
  probe_pressure_cov: 0.956
  probe_ma1_cov: 0.0
  probe_precip_hours: 706.0
  accepted: true
  probe_reject: ''
- station_id: '72248713935'
  name: ESLER REGIONAL AIRPORT
  ctry: US
  state: LA
  lat: 31.396
  lon: -92.283
  elev: 26.9
  regime: gulf_subtropical
  coastal: false
  desert: false
  lat_band: 24-35
  probe_pressure_cov: 0.917
  probe_ma1_cov: 0.0
  probe_precip_hours: 608.0
  accepted: true
  probe_reject: ''
- station_id: '72244693987'
  name: ANGELINA COUNTY AIRPORT
  ctry: US
  state: TX
  lat: 31.236
  lon: -94.755
  elev: 87.1
  regime: gulf_subtropical
  coastal: false
  desert: false
  lat_band: 24-35
  probe_pressure_cov: 0.999
  probe_ma1_cov: 0.153
  probe_precip_hours: 693.0
  accepted: true
  probe_reject: ''
- station_id: '72205012815'
  name: ORLANDO INTERNATIONAL AIRPORT
  ctry: US
  state: FL
  lat: 28.418
  lon: -81.324
  elev: 27.1
  regime: gulf_subtropical
  coastal: false
  desert: false
  lat_band: 24-35
  probe_pressure_cov: 1.0
  probe_ma1_cov: 0.976
  probe_precip_hours: 521.0
  accepted: true
  probe_reject: ''
- station_id: '72222693841'
  name: WHITING FIELD NAVAL AIR STATION NORTH
  ctry: US
  state: FL
  lat: 30.717
  lon: -87.017
  elev: 60.7
  regime: gulf_subtropical
  coastal: true
  desert: false
  lat_band: 24-35
  probe_pressure_cov: 0.813
  probe_ma1_cov: 0.008
  probe_precip_hours: 598.0
  accepted: false
  probe_reject: pressure_coverage
- station_id: '72222503855'
  name: PENSACOLA NAS
  ctry: US
  state: FL
  lat: 30.35
  lon: -87.317
  elev: 8.5
  regime: gulf_subtropical
  coastal: true
  desert: false
  lat_band: 24-35
  probe_pressure_cov: 0.959
  probe_ma1_cov: 0.009
  probe_precip_hours: 719.0
  accepted: true
  probe_reject: ''
- station_id: '72206013889'
  name: JACKSONVILLE INTERNATIONAL AIRPORT
  ctry: US
  state: FL
  lat: 30.495
  lon: -81.694
  elev: 7.2
  regime: gulf_subtropical
  coastal: true
  desert: false
  lat_band: 24-35
  probe_pressure_cov: 1.0
  probe_ma1_cov: 0.979
  probe_precip_hours: 649.0
  accepted: true
  probe_reject: ''
- station_id: '72251712932'
  name: ALICE INTERNATIONAL ARPT
  ctry: US
  state: TX
  lat: 27.741
  lon: -98.025
  elev: 52.0
  regime: gulf_subtropical
  coastal: true
  desert: false
  lat_band: 24-35
  probe_pressure_cov: 0.934
  probe_ma1_cov: 0.0
  probe_precip_hours: 403.0
  accepted: true
  probe_reject: ''
- station_id: '72231012916'
  name: LOUIS ARMSTRONG NEW ORLEANS INTL AP
  ctry: US
  state: LA
  lat: 29.998
  lon: -90.278
  elev: -1.0
  regime: gulf_subtropical
  coastal: true
  desert: false
  lat_band: 24-35
  probe_pressure_cov: 1.0
  probe_ma1_cov: 0.98
  probe_precip_hours: 711.0
  accepted: true
  probe_reject: ''
- station_id: '72251512926'
  name: CORPUS CHRISTI NAS
  ctry: US
  state: TX
  lat: 27.688
  lon: -97.292
  elev: 4.7
  regime: gulf_subtropical
  coastal: true
  desert: false
  lat_band: 24-35
  probe_pressure_cov: 0.957
  probe_ma1_cov: 0.013
  probe_precip_hours: 464.0
  accepted: true
  probe_reject: ''
- station_id: '72211012842'
  name: TAMPA INTERNATIONAL AIRPORT
  ctry: US
  state: FL
  lat: 27.963
  lon: -82.54
  elev: 1.8
  regime: gulf_subtropical
  coastal: true
  desert: false
  lat_band: 24-35
  probe_pressure_cov: 1.0
  probe_ma1_cov: 0.978
  probe_precip_hours: 540.0
  accepted: true
  probe_reject: ''
- station_id: '72222313899'
  name: PENSACOLA REGIONAL AIRPORT
  ctry: US
  state: FL
  lat: 30.476
  lon: -87.186
  elev: 36.0
  regime: gulf_subtropical
  coastal: true
  desert: false
  lat_band: 24-35
  probe_pressure_cov: 0.997
  probe_ma1_cov: 0.0
  probe_precip_hours: 733.0
  accepted: true
  probe_reject: ''
- station_id: '72203012844'
  name: PALM BEACH INTERNATIONAL AIRPORT
  ctry: US
  state: FL
  lat: 26.685
  lon: -80.099
  elev: 3.5
  regime: gulf_subtropical
  coastal: true
  desert: false
  lat_band: 24-35
  probe_pressure_cov: 1.0
  probe_ma1_cov: 0.978
  probe_precip_hours: 645.0
  accepted: true
  probe_reject: ''
- station_id: '72270023044'
  name: EL PASO INTERNATIONAL AIRPORT
  ctry: US
  state: TX
  lat: 31.812
  lon: -106.377
  elev: 1202.1
  regime: mountain_west
  coastal: false
  desert: true
  lat_band: 24-35
  probe_pressure_cov: 0.999
  probe_ma1_cov: 0.974
  probe_precip_hours: 256.0
  accepted: true
  probe_reject: ''
- station_id: '72262023055'
  name: GUADALUPE PASS AMOS
  ctry: US
  state: TX
  lat: 31.833
  lon: -104.809
  elev: 1655.0
  regime: mountain_west
  coastal: false
  desert: true
  lat_band: 24-35
  probe_pressure_cov: 0.0
  probe_ma1_cov: 0.0
  probe_precip_hours: 0.0
  accepted: false
  probe_reject: pressure_coverage
- station_id: '72677624036'
  name: LEWISTOWN MUNICIPAL ARPT
  ctry: US
  state: MT
  lat: 47.054
  lon: -109.457
  elev: 1257.4
  regime: mountain_west
  coastal: false
  desert: false
  lat_band: 45-55
  probe_pressure_cov: 0.967
  probe_ma1_cov: 0.0
  probe_precip_hours: 323.0
  accepted: true
  probe_reject: ''
- station_id: '72289093136'
  name: MOUNT WILSON
  ctry: US
  state: CA
  lat: 34.233
  lon: -118.067
  elev: 1739.2
  regime: mountain_west
  coastal: true
  desert: false
  lat_band: 24-35
  probe_pressure_cov: 0.0
  probe_ma1_cov: 0.0
  probe_precip_hours: 0.0
  accepted: false
  probe_reject: pressure_coverage
- station_id: '72566024028'
  name: WESTERN NE REGIONAL/HEILIG FIELD AP
  ctry: US
  state: NE
  lat: 41.875
  lon: -103.601
  elev: 1206.0
  regime: mountain_west
  coastal: false
  desert: false
  lat_band: 35-45
  probe_pressure_cov: 1.0
  probe_ma1_cov: 0.921
  probe_precip_hours: 643.0
  accepted: true
  probe_reject: ''
- station_id: '72476023066'
  name: GRAND JUNCTION REGIONAL AIRPORT
  ctry: US
  state: CO
  lat: 39.134
  lon: -108.541
  elev: 1470.4
  regime: mountain_west
  coastal: false
  desert: true
  lat_band: 35-45
  probe_pressure_cov: 0.995
  probe_ma1_cov: 0.972
  probe_precip_hours: 502.0
  accepted: true
  probe_reject: ''
- station_id: '72362593057'
  name: GRANTS-MILAN MUNI AIRPORT
  ctry: US
  state: NM
  lat: 35.165
  lon: -107.902
  elev: 1987.3
  regime: mountain_west
  coastal: false
  desert: true
  lat_band: 35-45
  probe_pressure_cov: 0.944
  probe_ma1_cov: 0.0
  probe_precip_hours: 0.0
  accepted: false
  probe_reject: precip_evidence
- station_id: '72572024127'
  name: SALT LAKE CITY INTERNATIONAL AIRPORT
  ctry: US
  state: UT
  lat: 40.771
  lon: -111.965
  elev: 1288.4
  regime: mountain_west
  coastal: false
  desert: false
  lat_band: 35-45
  probe_pressure_cov: 1.0
  probe_ma1_cov: 0.978
  probe_precip_hours: 637.0
  accepted: true
  probe_reject: ''
- station_id: '72464093058'
  name: PUEBLO MEMORIAL AIRPORT
  ctry: US
  state: CO
  lat: 38.289
  lon: -104.506
  elev: 1424.5
  regime: mountain_west
  coastal: false
  desert: true
  lat_band: 35-45
  probe_pressure_cov: 0.999
  probe_ma1_cov: 0.977
  probe_precip_hours: 509.0
  accepted: true
  probe_reject: ''
- station_id: '72569024089'
  name: NATRONA COUNTY INTERNATIONAL AP
  ctry: US
  state: WY
  lat: 42.898
  lon: -106.474
  elev: 1621.1
  regime: mountain_west
  coastal: false
  desert: false
  lat_band: 35-45
  probe_pressure_cov: 0.999
  probe_ma1_cov: 0.974
  probe_precip_hours: 699.0
  accepted: true
  probe_reject: ''
- station_id: '72463523067'
  name: LA JUNTA MUNICIPAL AIRPORT
  ctry: US
  state: CO
  lat: 38.049
  lon: -103.513
  elev: 1278.7
  regime: mountain_west
  coastal: false
  desert: false
  lat_band: 35-45
  probe_pressure_cov: 0.944
  probe_ma1_cov: 0.0
  probe_precip_hours: 427.0
  accepted: true
  probe_reject: ''
- station_id: '72362723081'
  name: GALLUP MUNICIPAL AIRPORT
  ctry: US
  state: NM
  lat: 35.509
  lon: -108.793
  elev: 1970.3
  regime: mountain_west
  coastal: false
  desert: true
  lat_band: 35-45
  probe_pressure_cov: 1.0
  probe_ma1_cov: 0.159
  probe_precip_hours: 596.0
  accepted: true
  probe_reject: ''
- station_id: '72467523063'
  name: EAGLE CO REGIONAL AIRPORT
  ctry: US
  state: CO
  lat: 39.65
  lon: -106.917
  elev: 1980.3
  regime: mountain_west
  coastal: false
  desert: true
  lat_band: 35-45
  probe_pressure_cov: 0.0
  probe_ma1_cov: 0.0
  probe_precip_hours: 31.0
  accepted: false
  probe_reject: pressure_coverage
- station_id: '72403093738'
  name: WASHINGTON DULLES INTERNATIONAL AP
  ctry: US
  state: VA
  lat: 38.935
  lon: -77.447
  elev: 89.5
  regime: ne_continental
  coastal: true
  desert: false
  lat_band: 35-45
  probe_pressure_cov: 1.0
  probe_ma1_cov: 0.979
  probe_precip_hours: 917.0
  accepted: true
  probe_reject: ''
- station_id: '72402093739'
  name: WALLOPS FLIGHT FACILITY AIRPORT
  ctry: US
  state: VA
  lat: 37.937
  lon: -75.466
  elev: 9.7
  regime: ne_continental
  coastal: true
  desert: false
  lat_band: 35-45
  probe_pressure_cov: 0.99
  probe_ma1_cov: 0.902
  probe_precip_hours: 872.0
  accepted: true
  probe_reject: ''
- station_id: '72308313763'
  name: FRANKLIN MUNICIPAL-JOHN BEVERLY ROSE AIRPORT
  ctry: US
  state: VA
  lat: 36.698
  lon: -76.903
  elev: 12.5
  regime: ne_continental
  coastal: true
  desert: false
  lat_band: 35-45
  probe_pressure_cov: 0.0
  probe_ma1_cov: 0.0
  probe_precip_hours: 0.0
  accepted: false
  probe_reject: pressure_coverage
- station_id: '72228013876'
  name: BIRMINGHAM INTERNATIONAL AIRPORT
  ctry: US
  state: AL
  lat: 33.565
  lon: -86.745
  elev: 187.7
  regime: ne_continental
  coastal: false
  desert: false
  lat_band: 24-35
  probe_pressure_cov: 0.992
  probe_ma1_cov: 0.077
  probe_precip_hours: 882.0
  accepted: true
  probe_reject: ''
- station_id: '72226513821'
  name: MAXWELL AFB AIRPORT
  ctry: US
  state: AL
  lat: 32.383
  lon: -86.35
  elev: 52.1
  regime: ne_continental
  coastal: false
  desert: false
  lat_band: 24-35
  probe_pressure_cov: 0.917
  probe_ma1_cov: 0.0
  probe_precip_hours: 666.0
  accepted: true
  probe_reject: ''
- station_id: '72743094850'
  name: MARQUETTE MICHIGAN COUNTY AP (WFO)
  ctry: US
  state: MI
  lat: 46.531
  lon: -87.549
  elev: 431.3
  regime: ne_continental
  coastal: false
  desert: false
  lat_band: 45-55
  probe_pressure_cov: 0.0
  probe_ma1_cov: 0.0
  probe_precip_hours: 0.0
  accepted: false
  probe_reject: pressure_coverage
- station_id: '72309793743'
  name: BOGUE FIELD MARINE CORPS AUXILIARY FIELD
  ctry: US
  state: NC
  lat: 34.683
  lon: -77.033
  elev: 6.4
  regime: ne_continental
  coastal: true
  desert: false
  lat_band: 24-35
  probe_pressure_cov: 0.279
  probe_ma1_cov: 0.014
  probe_precip_hours: 236.0
  accepted: false
  probe_reject: pressure_coverage
- station_id: '71627094792'
  name: MONTREAL/TRUDEAU INT
  ctry: CA
  state: QC
  lat: 45.467
  lon: -73.733
  elev: 36.0
  regime: ne_continental
  coastal: true
  desert: false
  lat_band: 45-55
  probe_pressure_cov: 0.975
  probe_ma1_cov: 0.619
  probe_precip_hours: 1281.0
  accepted: true
  probe_reject: ''
- station_id: '72518014735'
  name: ALBANY INTERNATIONAL AIRPORT
  ctry: US
  state: NY
  lat: 42.747
  lon: -73.799
  elev: 85.4
  regime: ne_continental
  coastal: false
  desert: false
  lat_band: 35-45
  probe_pressure_cov: 1.0
  probe_ma1_cov: 0.978
  probe_precip_hours: 1041.0
  accepted: true
  probe_reject: ''
- station_id: '72534014819'
  name: CHICAGO MIDWAY INTL ARPT
  ctry: US
  state: IL
  lat: 41.784
  lon: -87.755
  elev: 185.8
  regime: ne_continental
  coastal: false
  desert: false
  lat_band: 35-45
  probe_pressure_cov: 0.956
  probe_ma1_cov: 0.387
  probe_precip_hours: 952.0
  accepted: true
  probe_reject: ''
- station_id: '72537094847'
  name: DETROIT METRO WAYNE COUNTY AIRPORT
  ctry: US
  state: MI
  lat: 42.231
  lon: -83.331
  elev: 191.9
  regime: ne_continental
  coastal: false
  desert: false
  lat_band: 35-45
  probe_pressure_cov: 1.0
  probe_ma1_cov: 0.975
  probe_precip_hours: 939.0
  accepted: true
  probe_reject: ''
- station_id: '72424013807'
  name: GODMAN AAF AIRPORT
  ctry: US
  state: KY
  lat: 37.9
  lon: -85.967
  elev: 230.1
  regime: ne_continental
  coastal: false
  desert: false
  lat_band: 35-45
  probe_pressure_cov: 0.966
  probe_ma1_cov: 0.0
  probe_precip_hours: 1264.0
  accepted: true
  probe_reject: ''
- station_id: '72537514822'
  name: DETROIT CITY AIRPORT
  ctry: US
  state: MI
  lat: 42.407
  lon: -83.009
  elev: 189.8
  regime: ne_continental
  coastal: false
  desert: false
  lat_band: 35-45
  probe_pressure_cov: 0.001
  probe_ma1_cov: 0.0
  probe_precip_hours: 659.0
  accepted: false
  probe_reject: pressure_coverage
- station_id: '72481023203'
  name: CASTLE AFB
  ctry: US
  state: CA
  lat: 37.383
  lon: -120.567
  elev: 58.2
  regime: pacific_maritime
  coastal: false
  desert: false
  lat_band: 35-45
  probe_pressure_cov: null
  probe_ma1_cov: null
  probe_precip_hours: null
  accepted: false
  probe_reject: probe_year_1998_absent
- station_id: '72690424231'
  name: ROSEBURG REGIONAL AIRPORT
  ctry: US
  state: OR
  lat: 43.234
  lon: -123.358
  elev: 152.9
  regime: pacific_maritime
  coastal: false
  desert: false
  lat_band: 35-45
  probe_pressure_cov: 0.965
  probe_ma1_cov: 0.0
  probe_precip_hours: 947.0
  accepted: true
  probe_reject: ''
- station_id: '72597024225'
  name: ROGUE VALLEY INTL-MEDFORD AIRPORT
  ctry: US
  state: OR
  lat: 42.375
  lon: -122.877
  elev: 400.3
  regime: pacific_maritime
  coastal: false
  desert: false
  lat_band: 35-45
  probe_pressure_cov: 1.0
  probe_ma1_cov: 0.976
  probe_precip_hours: 679.0
  accepted: true
  probe_reject: ''
- station_id: '72595724215'
  name: MOUNT SHASTA
  ctry: US
  state: CA
  lat: 41.315
  lon: -122.317
  elev: 1083.0
  regime: pacific_maritime
  coastal: false
  desert: false
  lat_band: 35-45
  probe_pressure_cov: 0.956
  probe_ma1_cov: 0.0
  probe_precip_hours: 626.0
  accepted: true
  probe_reject: ''
- station_id: '72286023119'
  name: MARCH AIR RESERVE BASE
  ctry: US
  state: CA
  lat: 33.9
  lon: -117.25
  elev: 468.2
  regime: pacific_maritime
  coastal: false
  desert: false
  lat_band: 24-35
  probe_pressure_cov: 0.967
  probe_ma1_cov: 0.0
  probe_precip_hours: 235.0
  accepted: true
  probe_reject: ''
- station_id: '71899025343'
  name: LANGARA
  ctry: CA
  state: BC
  lat: 54.25
  lon: -133.05
  elev: 41.0
  regime: pacific_maritime
  coastal: true
  desert: false
  lat_band: 45-55
  probe_pressure_cov: 0.121
  probe_ma1_cov: 0.0
  probe_precip_hours: 286.0
  accepted: false
  probe_reject: pressure_coverage
- station_id: '72797624217'
  name: BELLINGHAM INTL AIRPORT
  ctry: US
  state: WA
  lat: 48.799
  lon: -122.541
  elev: 45.9
  regime: pacific_maritime
  coastal: true
  desert: false
  lat_band: 45-55
  probe_pressure_cov: 0.283
  probe_ma1_cov: 0.0
  probe_precip_hours: 1116.0
  accepted: false
  probe_reject: pressure_coverage
- station_id: '72691724284'
  name: NORTH BEND MUNICIPAL ARPT
  ctry: US
  state: OR
  lat: 43.413
  lon: -124.244
  elev: 5.2
  regime: pacific_maritime
  coastal: true
  desert: false
  lat_band: 35-45
  probe_pressure_cov: 0.956
  probe_ma1_cov: 0.0
  probe_precip_hours: 911.0
  accepted: true
  probe_reject: ''
- station_id: '72492023237'
  name: STOCKTON METROPOLITAN AIRPORT
  ctry: US
  state: CA
  lat: 37.89
  lon: -121.226
  elev: 8.3
  regime: pacific_maritime
  coastal: true
  desert: false
  lat_band: 35-45
  probe_pressure_cov: 0.999
  probe_ma1_cov: 0.974
  probe_precip_hours: 221.0
  accepted: true
  probe_reject: ''
- station_id: '72394023273'
  name: SANTA MARIA PUB/CAPT G A HANCOCK AP
  ctry: US
  state: CA
  lat: 34.894
  lon: -120.452
  elev: 74.2
  regime: pacific_maritime
  coastal: true
  desert: false
  lat_band: 24-35
  probe_pressure_cov: 0.998
  probe_ma1_cov: 0.977
  probe_precip_hours: 197.0
  accepted: true
  probe_reject: ''
- station_id: '72297793184'
  name: J. WAYNE APT-ORANGE CO APT
  ctry: US
  state: CA
  lat: 33.68
  lon: -117.867
  elev: 13.0
  regime: pacific_maritime
  coastal: true
  desert: false
  lat_band: 24-35
  probe_pressure_cov: 0.0
  probe_ma1_cov: 0.0
  probe_precip_hours: 145.0
  accepted: false
  probe_reject: pressure_coverage
- station_id: '72785524114'
  name: FAIRCHILD AIR FORCE BASE
  ctry: US
  state: WA
  lat: 47.633
  lon: -117.65
  elev: 750.1
  regime: pacific_maritime
  coastal: false
  desert: false
  lat_band: 45-55
  probe_pressure_cov: 0.963
  probe_ma1_cov: 0.0
  probe_precip_hours: 1017.0
  accepted: true
  probe_reject: ''
- station_id: '72698824219'
  name: MUNICIPAL AIRPORT
  ctry: US
  state: WA
  lat: 45.619
  lon: -121.166
  elev: 71.2
  regime: pacific_maritime
  coastal: false
  desert: false
  lat_band: 45-55
  probe_pressure_cov: 0.666
  probe_ma1_cov: 0.0
  probe_precip_hours: 440.0
  accepted: false
  probe_reject: pressure_coverage
